property_id,lat,lng,addr_street,suburb,price,property_type,year,bedrooms,bathrooms,parking_space,Shopping_center_id,Distance_to_sc,Train_station_id,Distance_to_train_station,travel_min_to_CBD,Transfer_flag,Hospital_id,Distance_to_hospital,Supermarket_id,Distance_to_supermaket
57249,-37.825859,145.071925,31 Warburton Road,Canterbury,28900000,house,2012,4,2,2,SC_099,1.2327477867381151,19892,0.3284087376079867,0.0,1,hospital_168,2.691265952912311,S_160,1.0207944708786532
59577,-37.828015,145.188107,2 Rosstrevor Crescent,Mitcham,5900000,house,2014,2,2,2,SC_088,1.2241112159704564,19900,1.1644777913597362,0.0,1,hospital_010,2.024589262005956,S_202,1.1407120164260516
37490,-37.637998,145.056582,5 Dicello Rise,Epping,8840000,house,2016,4,2,2,SC_062,2.969300498055229,45795,1.546616886281068,0.0,1,hospital_053,3.8432707575787015,S_083,1.9796880928897085
83101,-37.88210678,145.2502136,21 Watersedge Close,Knoxfield,5600000,house,2008,4,2,2,SC_049,5.278025614870172,19869,3.85063021951478,0.0,1,hospital_002,3.359536713562252,S_027,2.4306141767991103
90250,-37.966312,145.060927,20 Centre Dandenong Road,Cheltenham,5280000,house,2015,3,1,2,SC_003,2.5268885516158126,19866,0.5602080485839983,36.65,0,hospital_082,0.7446798034906131,S_023,0.8846348383978149
70172,-37.874383,145.071772,50 Karnak Road,Ashburton,16640000,house,2010,4,3,2,SC_041,1.6308051768124945,19838,0.35225503034990463,22.928571428571427,0,hospital_108,1.2598873440721425,S_048,1.6532972514423148
34214,-37.722947,145.021955,2/31 Boldrewood Parade,Reservoir,5313000,house,2015,3,2,1,SC_047,1.8865291693408395,20010,1.4799973948622822,0.0,1,hospital_025,1.9833642364492623,S_225,0.6352901060358727
8746,-37.887999,144.757589,1 George Benjamin Court,Seabrook,2920000,house,2012,4,2,2,SC_092,2.603824655410462,46468,2.206612181671241,32.75,0,hospital_073,6.938466926611704,S_001,2.009825059309076
69368,-37.863399,145.088602,1 Poulter Street,Ashburton,3594000,house,2010,3,1,1,SC_042,1.572918223467709,19848,0.6574783650959086,35.714285714285715,0,hospital_098,0.32667945452611863,S_112,0.5657362729747076
36128,-37.662284,145.034324,11 Cromwell Court,Lalor,3080000,house,2013,5,2,2,SC_062,4.662169814856133,20005,1.162269291381333,0.0,1,hospital_053,1.9722783034447071,S_229,1.3670313958748177
79852,-38.000534,145.149659,2 Latrobe Avenue,Keysborough,9310000,house,2013,4,2,2,SC_057,2.251221895197522,19890,4.412481521880091,48.82608695652174,0,hospital_096,2.0242661165215985,S_079,2.165549050686706
53320,-37.833277,144.998843,44 Durham Street,Richmond,13300000,house,2010,3,2,1,SC_038,1.1592765684707786,19907,0.781319166264141,6.0,0,hospital_196,0.5726039206398826,S_102,1.1411240586242255
22957,-37.746545,144.954696,54 Phillips Street,Coburg,6288000,house,2010,3,1,2,SC_030,1.6245348497416863,19965,0.8927648894617263,0.0,1,hospital_084,0.9013738656779124,S_172,1.0749370101023465
57265,-37.8284304,145.0754629,34 Matlock Street,Canterbury,12700000,house,2012,4,1,2,SC_099,1.5983259338269473,19852,0.6154170571966789,27.833333333333332,0,hospital_168,2.6585472659656557,S_160,0.8299235870906934
22864,-37.746287,144.971374,48 Coburg Street,Coburg,10724000,house,2014,3,1,2,SC_030,2.4262256436849214,19965,0.8325387592465155,0.0,1,hospital_144,1.1352687330291285,S_173,0.6157515338496159
42676,-37.741939,145.081665,9 Red Berry Lane enter at 87 Banyule Road,Rosanna,12155000,house,2012,4,2,2,SC_017,1.9250179767972921,19936,1.3705795106095304,27.9375,0,hospital_066,2.2931168392312604,S_100,2.2432278040351705
64044,-37.782932,145.282874,257 Maroondah Highway,Croydon north,4942000,house,2010,3,1,2,SC_022,1.7981955399263192,19878,1.4063455912283749,0.0,1,hospital_164,3.6602727308300174,S_181,1.4640034225599725
72951,-37.847479,145.290304,14 Harewood Close,Boronia,5520000,house,2013,4,2,2,SC_022,5.424410286593171,19869,1.5349418773263963,0.0,1,hospital_049,1.8104519784636317,S_024,1.658992471889706
49905,-37.77699661,145.0895081,14 Balwyn Road,Bulleen,4200000,house,2009,3,1,0,SC_009,1.2806900210283976,19935,3.369222477304193,26.176470588235293,0,hospital_194,2.29829473709328,S_154,1.179926462154958
16666,-37.703031,144.949269,18 Hilton Street,Hadfield,5040000,house,2010,3,1,2,SC_030,3.2708084329215996,19961,0.8856050166658193,0.0,1,hospital_139,4.59129166064891,S_004,1.0282757404590142
68427,-37.858404,145.016,28 Denbigh Road,Armadale,28220000,house,2011,4,2,1,SC_038,2.098606464198565,19945,0.364175850065257,23.583333333333332,0,hospital_132,0.7864986122526711,S_013,1.1045456000134615
4065,-37.8414441,144.8740901,110 Mason Street,Newport,10200000,house,2011,3,2,2,SC_033,2.911677763611767,19994,0.8479189707792505,20.608695652173914,0,hospital_141,2.792308465448032,S_056,2.5220787015657127
39322,-37.70566177,145.0707855,1 Tiro Crt,Bundoora,3850000,house,2007,3,1,2,SC_047,5.1086902255549385,19984,1.288368548463645,33.86666666666667,0,hospital_037,1.2657569707163046,S_155,1.6024744489740284
25793,-37.58122,144.935405,2 Cooma Lane,Craigieburn,3630000,house,2012,3,2,2,SC_005,1.5126516169667943,40221,2.3967314085365836,45.92857142857143,0,hospital_104,7.846082734546513,S_178,1.428020744940855
6840,-37.78139877,144.8193207,56 King Edward Avenue,Albion,2160000,house,2008,3,1,2,SC_102,1.2580797957049412,20004,0.6310127315502364,28.058823529411764,0,hospital_174,1.2327343895430758,S_080,1.2122281723140607
49160,-37.80293274,145.0748596,2 Bernborough Avenue,Balwyn,11472000,house,2009,2,1,2,SC_099,2.8051545051432867,19893,2.46358001505412,0.0,1,hospital_064,2.4219532319297326,S_137,1.41246765746406
20644,-37.75829697,144.9510651,17 Thistle Street,Brunswick,5400000,house,2008,4,1,2,SC_030,2.883295394090038,19967,0.9077854792208353,0.0,1,hospital_011,0.756941622402507,S_074,1.5031356515749934
86695,-37.9031105,144.990509,4 Ballara Court,Brighton,26690000,house,2009,4,1,2,SC_015,3.927254097964663,19952,1.0806922794719156,20.0,0,hospital_198,0.8747130742463599,S_150,1.1760173457524616
88717,-37.949968,145.038124,27 Donald St,Highett,19500000,house,2016,4,3,3,SC_079,0.2749608098530457,19872,0.37112072738807683,39.583333333333336,0,hospital_110,1.886439690801334,S_069,0.27475067510905465
47396,-37.710183,145.156093,62 Livingstone Road,Eltham,7980000,house,2014,4,3,2,SC_051,4.077342682498603,19987,0.8191248339046192,44.0,0,hospital_075,4.458904487205643,S_194,0.5618965222257067
84029,-37.848847,145.005002,43 Westbourne Street,Prahran,11100000,house,2013,2,1,1,SC_038,0.9646190339403544,19947,0.536345563820747,20.583333333333332,0,hospital_132,0.6789452582055086,S_115,0.09226509588508011
88139,-37.937737,145.038694,2/1017 Nepean Highway,Moorabbin,7410000,house,2013,3,2,1,SC_046,0.1986565859713128,19937,0.4139547376445503,38.4,0,hospital_110,0.5473640856100568,S_069,1.2854789301856462
57597,-37.823909,145.165354,129 Central Road,Blackburn,17550000,house,2016,3,1,1,SC_002,0.7376607537194413,19899,0.9158479690842951,0.0,1,hospital_060,1.296150497164167,S_202,0.9554396224020397
39881,-37.706203,145.069126,189 Greenwood Drive,Bundoora,4230000,house,2011,4,1,1,SC_047,4.963989885410869,19984,1.3959482259836444,33.86666666666667,0,hospital_037,1.1540373495625253,S_155,1.5087322791972757
29137,-37.797917,144.998601,84 Trenerry Crescent (Townhouse 22),Abbotsford,5600000,house,2011,2,2,2,SC_008,2.967429377983721,19975,0.39025567718473336,11.333333333333334,0,hospital_134,1.5262084330091688,S_076,1.3276718652841333
27866,-37.58175,144.919362,88 Mareeba Way,Craigieburn,4576000,house,2014,4,2,2,SC_005,0.804789148184162,40221,3.074999855211026,45.92857142857143,0,hospital_104,7.675543818948064,S_178,1.8779599612012319
75958,-37.896733,145.079262,23 Arthur Street,Hughesdale,7218000,house,2014,3,2,2,SC_087,0.9479442256486068,19918,0.25082364504471116,31.85185185185185,0,hospital_166,2.363195550012097,S_167,0.9477078786942782
39651,-37.694609,145.060759,1396 Plenty Road,Bundoora,6204000,house,2010,3,2,3,SC_062,5.252724564326018,19984,2.725399255945337,33.86666666666667,0,hospital_041,0.39841915179950455,S_155,0.690911868664024
40024,-37.702252,145.06081,20 Olympic Street,Bundoora,7056000,house,2009,3,1,2,SC_047,4.85124146354105,19984,2.2441622210633057,33.86666666666667,0,hospital_037,0.3152462837377896,S_155,0.6564841565260756
87916,-37.932877,145.00466,7 Ludstone Street,Hampton,7360000,house,2010,3,2,1,SC_046,3.0477264579811476,19949,0.6330010943250224,26.933333333333334,0,hospital_036,1.0665327297019107,S_088,0.5182919794547702
43947,-37.70471573,145.0825806,9 Regis Court,Watsonia,4150000,house,2008,4,2,1,SC_017,5.815615020272289,19984,0.7030293814395668,33.86666666666667,0,hospital_075,2.051371669308033,S_020,1.539872565916174
95077,-37.911467,145.02473,2 Pascoe Avenue,Bentleigh,8350000,house,2010,3,1,1,SC_046,3.3416560332652403,19940,1.1986535507548193,36.5,0,hospital_126,1.2977429031834298,S_107,1.7700512026341564
68278,-37.851766,145.028851,1102 Malvern Road,Armadale,19240000,house,2011,3,2,2,SC_038,2.1978884565688337,19945,0.98645260209456,23.583333333333332,0,hospital_157,1.2832475592335721,S_235,0.9375322280511067
28428,-37.803282,144.98281,99 Charles Street,Fitzroy,6570000,house,2010,1,1,0,SC_008,1.4870132515885897,19976,0.9720905447479729,10.333333333333334,0,hospital_178,0.5929444844878194,S_175,0.10145675589944426
23761,-37.658278,144.9003,7 Casablanca Court,Greenvale,5070000,house,2010,4,3,3,SC_072,2.1050804725565984,44817,2.2898735907719914,39.92857142857143,0,hospital_104,1.9635240330774206,S_211,2.6142480615842563
66998,-37.767648,145.362913,13 Kenthurst Court,Lilydale,3560000,house,2014,3,2,2,SC_084,4.438027075908867,19876,1.9008630521174237,0.0,1,hospital_113,0.953513010194724,S_081,1.4538177567240842
26244,-37.585149,144.909641,28 Densham Way,Craigieburn,5360000,house,2015,4,3,2,SC_016,0.9361229290744982,40221,3.5024530332854273,45.92857142857143,0,hospital_104,7.358218342979932,S_178,2.3637807445968844
5392,-37.78336716,144.8579712,1 Hancock Crescent,Braybrook,15360000,house,2009,3,1,2,SC_043,1.1869868012231333,20022,1.821461699473695,21.6,0,hospital_174,2.326360281680983,S_149,1.1873090637967445
55832,-37.837395,145.068186,6 Marlborough Avenue,Camberwell,22800000,house,2012,4,2,2,SC_099,1.7050416885480921,19851,0.26345266445608684,29.714285714285715,0,hospital_168,1.5056242151307757,S_160,0.36370405614406287
54526,-37.817426,145.025187,44 College Street,Hawthorn,11700000,house,2016,3,1,0,SC_083,0.9753704925681249,19905,0.5295199781208209,18.714285714285715,0,hospital_086,0.5471222450837289,S_208,0.9465430762061234
63030,-37.833016,145.242969,6 Mountain View Road,Heathmont,11250000,house,2014,4,1,2,SC_032,2.5761494322091973,19871,0.540787953837216,0.0,1,hospital_179,2.2773790419498203,S_139,2.377013959306937
64027,-37.798643,145.276386,24A Starcross Avenue,Croydon,10080000,house,2015,3,2,1,SC_022,0.5907628560220206,19878,0.5144100202409272,0.0,1,hospital_164,2.0916274698528876,S_182,0.4220606389104748
48984,-37.808975,145.082539,124 Balwyn Road,Balwyn,9120000,house,2012,3,1,2,SC_099,2.751200652219033,19893,1.730414898729428,0.0,1,hospital_117,2.9877147607413295,S_136,1.7679007702076899
5272,-37.856805,144.822189,6 Chorley Avenue,Altona,8775000,house,2015,3,1,3,SC_033,3.9894227315028803,19925,1.2040444884343693,32.2,0,hospital_141,6.128464315509596,S_128,1.4227527488132665
42073,-37.735233,145.07255,31 Brassey Avenue,Rosanna,13277000,house,2016,3,1,1,SC_017,2.312639472395459,19936,1.021138543283086,27.9375,0,hospital_066,2.421584268839762,S_100,2.688157136781154
80976,-37.978186,145.229588,2/3 Parkview Close,Dandenong,4848000,house,2013,2,1,1,SC_112,1.614140632514231,19888,2.1810880369458743,53.81818181818182,0,hospital_033,1.1750098791283736,S_183,1.4732307031144212
55906,-37.83209991,145.0702515,7 Spencer Road,Camberwell,12210000,house,2009,4,1,1,SC_099,1.378027424962428,19852,0.08493148628917474,27.833333333333332,0,hospital_168,2.048473055229177,S_160,0.32946843147553956
83131,-37.883436,145.240813,27 Belindavale Drive,Knoxfield,7540000,house,2010,4,2,2,SC_073,5.448093860568524,19869,4.604953681221644,0.0,1,hospital_002,3.9340981009116818,S_027,1.8463995228206265
71340,-37.843171,145.224573,26 Bateman Street,Wantirna,7821000,house,2016,4,2,2,SC_032,3.406533015919823,19871,2.41211954712526,0.0,1,hospital_008,0.7277019972585426,S_226,2.6612730165199943
25715,-37.60267258,144.9246368,18 Raheen Place,Craigieburn,2745000,house,2008,3,2,2,SC_110,1.432121553123044,40221,1.6505006952675405,45.92857142857143,0,hospital_104,5.358868740967254,S_178,1.2704215595019466
36094,-37.673185,145.025827,1/51 David Street,Lalor,3680000,house,2010,4,2,2,SC_062,5.777974862784327,20006,1.115929292362394,0.0,1,hospital_053,2.542087204651702,S_228,0.7792012540688252
6756,-37.790267,144.820801,48 Armstrong Street,Sunshine west,7290000,house,2013,3,2,2,SC_102,1.4294397994735635,20021,1.079762079707793,25.666666666666668,0,hospital_174,1.738747003084237,S_080,1.4469605568981136
50815,-37.794791,145.130486,14 Grange Park Avenue,Doncaster,8400000,house,2013,5,2,2,SC_091,0.9445966037991255,20042,2.833807252615299,0.0,1,hospital_154,2.312327671009267,S_188,1.0381250380452085
32922,-37.752463,145.00764,51 Carlisle Street,Preston,5356000,house,2010,3,1,1,SC_103,1.518619967159062,20014,0.8485736766812912,0.0,1,hospital_035,1.163182353159972,S_105,0.3853772986997146
66505,-37.78441,145.331111,53 Lancaster Road,Mooroolbark,7120000,house,2010,3,1,2,SC_084,3.2908154723710497,19877,1.6463422806443835,0.0,1,hospital_113,3.251900876064323,S_224,2.688962415468352
74616,-37.895369,145.067307,15 Burns Avenue,Murrumbeena,15900000,house,2012,4,2,2,SC_041,1.4049323104505103,19919,0.5756162062230312,29.892857142857142,0,hospital_159,2.9831337517257053,S_015,1.283908428325935
27342,-37.580225,144.938283,6 Berrima Close,Craigieburn,5950000,house,2010,4,2,2,SC_005,1.694365942153562,40221,2.4442718853681877,45.92857142857143,0,hospital_104,8.001357271039382,S_178,1.5792503938488973
23913,-37.710025,144.967849,11 Lock Street,Fawkner,6640000,house,2014,2,1,1,SC_030,2.9398237445428546,19962,0.8218826747524495,0.0,1,hospital_139,2.789667420833926,S_161,2.432446955776522
19123,-37.67384,144.945089,67 Academy Drive,Broadmeadows,6409000,house,2013,5,2,2,SC_072,3.265896390110634,19960,0.8762262817054137,0.0,1,hospital_104,3.3710125086468046,S_161,2.097364012691707
71257,-37.846266,145.232249,2 Lotus Court,Wantirna,7370000,house,2015,3,2,2,SC_032,3.7427608275038295,19871,2.2716243388552226,0.0,1,hospital_179,0.5452314271511242,S_226,2.516909075260363
29339,-37.76289,144.988482,124A Emmaline Street,Northcote,9870000,house,2014,3,2,1,SC_103,2.8523411799053613,20015,0.7664863578316061,0.0,1,hospital_144,1.632486585272441,S_105,1.8730997260331936
19471,-37.66221237,144.9268341,6 Etna Court,Coolaroo,2352000,house,2008,3,1,0,SC_072,1.3386834491384365,44817,0.15114352825633726,39.92857142857143,0,hospital_104,1.401064522548912,S_153,1.825523379558983
82772,-37.905028,145.270634,4 Langhorne Crescent,Rowville,7200000,house,2016,5,2,2,SC_049,3.507869251224053,19868,3.379516810127535,0.0,1,hospital_150,3.8086804160958914,S_199,2.4666969379316854
61447,-37.810784,145.217532,19 Poynton Avenue,Ringwood,7815000,house,2013,3,2,2,SC_032,1.016274706530852,19901,0.994683292377705,0.0,1,hospital_010,2.0610831659169677,S_040,0.9952633729835894
37518,-37.649101,145.056262,5 Primrose Place,Epping,8560000,house,2015,4,2,2,SC_062,2.5930022309717256,45795,0.9492958661692107,0.0,1,hospital_053,3.515887802246229,S_096,1.6020922519894782
96081,-37.912677,145.038313,63 Bent Street,Mckinnon,12930000,house,2010,4,2,3,SC_046,2.9858597270421297,19940,0.2635979978570995,36.5,0,hospital_126,2.138358207592193,S_107,0.8322681435852655
42177,-37.749031,145.061439,39 Bronte Street,Heidelberg,7218000,house,2014,3,1,0,SC_017,0.974958938340923,19936,0.8001799858890115,27.9375,0,hospital_066,0.6931690854024379,S_100,1.2846294499087105
83424,-37.84685516,144.9896545,112 Charles Street,Prahran,4160000,house,2009,3,2,2,SC_066,0.3481106543579007,19958,0.29702294061790435,9.0,0,hospital_155,0.20413105537109358,S_115,1.378734666243439
11966,-37.704695,144.811774,981 Old Calder Highway,Keilor,9000000,house,2014,4,2,2,SC_107,2.5459036050888013,20001,3.164113912802272,36.05882352941177,0,hospital_057,6.215683733928095,S_222,2.7197330603403205
34408,-37.701739,145.012282,24 Smith Street,Reservoir,7033000,house,2014,3,1,2,SC_103,4.309907298206247,20009,0.7275271629916383,0.0,1,hospital_139,2.161866187376859,S_225,2.958187166274482
89039,-37.945011,145.033936,8 Seaton Road,Highett,9210000,house,2012,3,1,1,SC_046,0.7252733548392181,19872,0.793546679238524,39.583333333333336,0,hospital_110,1.3544452300170342,S_069,0.7762125927707685
81975,-37.984767,145.243326,23 Kathryn Street,Doveton,4410000,house,2010,3,1,2,SC_077,2.3146795048853797,19888,3.004236857639637,53.81818181818182,0,hospital_119,2.1377426599735387,S_195,1.4978098435796547
15655,-37.741915,144.888473,28 Coghlan Street,Niddrie,10990000,house,2010,3,1,1,SC_082,1.7450752601707968,20037,2.901260376555237,20.88235294117647,0,hospital_184,1.4619764374925617,S_198,1.7497239756431842
62408,-37.80077,145.240197,92 Mullum Mullum Road,Ringwood,8302000,house,2014,3,1,1,SC_032,1.6677036976693098,19879,1.5252629053313977,0.0,1,hospital_105,1.1815855824279835,S_157,1.3678578189279722
59734,-37.811616,145.205572,26 Sharrow Road,Mitcham,6350000,house,2012,4,2,2,SC_032,2.048067555502517,19901,1.029178902032813,0.0,1,hospital_010,1.017180797428636,S_040,2.0388787581806747
96205,-37.913029,145.037212,75 Nicholson Street,Mckinnon,13855000,house,2011,3,1,2,SC_046,2.9483479612660295,19940,0.31747145094933354,36.5,0,hospital_126,2.0897837973082622,S_107,0.8414966896395542
55240,-37.838469,145.093266,2/147 Through Road,Camberwell,7800000,house,2013,3,2,2,SC_037,3.353816216073997,19894,1.628725610644739,0.0,1,hospital_089,2.111465395070742,S_160,1.9952188806389872
20824,-37.77665329,144.9641266,226 Barkly Street,Brunswick,14925000,house,2008,4,2,2,SC_008,3.9495891678560633,19969,0.5108436021296637,0.0,1,hospital_024,1.6114993777600006,S_138,0.16204016633118404
33226,-37.7364,145.005684,82 Pender Street,Preston,6288000,house,2013,3,2,2,SC_103,0.48339771322852804,20012,0.5201839724652487,0.0,1,hospital_139,2.20119754059209,S_084,0.26349956687048104
49189,-37.806211,145.089553,2/18 Raynes Street,Balwyn,7680000,house,2011,4,2,2,SC_020,3.1667974847928257,19894,2.015133837452434,0.0,1,hospital_117,2.444197671666474,S_136,1.093006150577433
16711,-37.69901,144.939751,197 West Street,Glenroy,8245000,house,2012,3,1,1,SC_030,3.8281399192596077,19961,1.6945263998898517,0.0,1,hospital_139,5.534968142790512,S_004,0.8964171899100727
16424,-37.70797348,144.919754,12 Tudor Street,Glenroy,3600000,house,2008,3,2,2,SC_010,2.9652720590224875,20032,0.44292324699582775,32.875,0,hospital_184,4.0338078705077685,S_209,0.43369364944392463
33465,-37.702207,145.017049,1/5 Pickett Street,Reservoir,9214000,house,2010,3,1,2,SC_047,4.210955777483597,20009,0.9172458087363357,0.0,1,hospital_139,2.3917918016825346,S_225,2.7285515955949404
76735,-37.919236,145.142284,28a Cambro Road,Clayton,6342000,house,2014,3,1,2,SC_073,4.097950621814294,19915,2.0038113899973915,38.77777777777778,0,hospital_065,1.8103806183105078,S_169,2.207915771903206
90642,-37.972599,145.081085,4 Atunga Court,Cheltenham,7425000,house,2015,5,2,2,SC_003,0.7190809193112492,19865,1.7364270568536642,38.9,0,hospital_109,1.2429077101144848,S_003,1.3232474467652402
89058,-37.953596,145.028219,9 Highland Avenue,Highett,8206000,house,2014,3,1,3,SC_079,1.2327428204078155,19872,1.3294833636952572,39.583333333333336,0,hospital_058,1.2062609079569837,S_214,1.0559479125343167
41625,-37.740744,145.094438,15 Country Lane,Viewbank,10425000,house,2014,3,2,2,SC_009,2.7813492631516654,19936,2.5022704691585647,27.9375,0,hospital_066,3.2968434878327204,S_154,2.8789540442199724
68540,-37.857257,145.024587,44 Stuart Street,Armadale,18370000,house,2014,3,1,1,SC_038,2.3475405230661055,19945,0.47102428376297967,23.583333333333332,0,hospital_092,0.8109237192107208,S_235,0.5014724176770671
8836,-37.883172,144.76114,129 Seabrook Blvd,Seabrook,6120000,house,2014,3,2,2,SC_092,3.056193812742925,19924,1.844313788640639,30.75,0,hospital_073,7.179231515605231,S_001,2.2731681030281203
12878,-37.69173,144.753811,3 Braddon Court,Hillside,4620000,house,2010,3,2,2,SC_048,4.715883804341706,20000,2.0769274098771997,39.05882352941177,0,hospital_057,9.334874630271637,S_163,0.2910628091284373
11316,-37.786251,144.886011,29 Allara Avenue,Maribyrnong,7800000,house,2014,4,2,1,SC_085,1.4557027144883727,20023,1.732890118543645,19.6,0,hospital_003,0.7198365622322831,S_049,1.4802653624167312
17200,-37.701919,144.918362,4 Trevannion Street,Glenroy,10605000,house,2016,3,2,2,SC_010,3.0783454989660406,20032,0.30821413276420534,32.875,0,hospital_184,4.644865773675626,S_209,0.6730057953188866
20125,-37.79508209,144.9743958,268 Station Street,Carlton,7344000,house,2009,2,1,0,SC_008,1.9087558693060318,19843,1.7827431734187213,7.466960352422907,0,hospital_188,0.9366106969345037,S_200,0.45888334385915724
74541,-37.89041519,145.075882,12 Packer Street,Murrumbeena,12360000,house,2009,3,1,2,SC_087,0.5486087642144074,19918,0.520460496144581,31.85185185185185,0,hospital_166,2.8207909260559543,S_167,0.5484382478891328
58658,-37.82668686,145.1784363,1A Menin Road,Nunawading,4005000,house,2009,2,1,1,SC_088,0.8256056101345294,19899,0.7454965682193879,0.0,1,hospital_060,2.0859721375019906,S_202,0.36541224441523823
23444,-37.64702225,144.8991699,16 Moffat Court,Greenvale,3510000,house,2008,3,2,2,SC_075,1.7352354035996045,44817,2.834833487432453,39.92857142857143,0,hospital_104,1.9168218088461673,S_211,1.7198550627676432
4805,-37.866225,144.842878,10 Acacia Avenue,Seaholme,2550000,house,2010,3,1,2,SC_033,4.416004228544912,19927,0.24675602278574388,28.166666666666668,0,hospital_141,4.299420168722645,S_128,1.148809619200026
63125,-37.833973,145.241671,87 Cuthbert Street,Heathmont,7770000,house,2010,3,1,1,SC_032,2.6186664899301046,19871,0.6782186004022136,0.0,1,hospital_179,2.1240116439562815,S_139,2.4327674496210565
64156,-37.79922104,145.2911682,3 Donald St,Croydon,27500000,house,2009,3,1,2,SC_022,0.7116772412897092,19878,1.0207527483721088,0.0,1,hospital_164,3.2702442508406646,S_055,0.7245365922266019
82559,-37.905859,145.2609,125 Kellbourne Drive,Rowville,8048000,house,2010,3,2,2,SC_049,4.348688751151333,19868,4.04222925777854,0.0,1,hospital_150,4.666866687214235,S_027,2.6819907599872232
20966,-37.77827835,144.9693451,29/70-74 Brunswick Road,Brunswick,3440000,house,2008,2,1,1,SC_008,3.736900909606721,19969,1.0043397509347405,0.0,1,hospital_024,1.8122181595100997,S_138,0.6545048197933945
84854,-37.876283,144.979829,302 Barkly Street,Elwood,26860000,house,2016,2,1,1,SC_015,0.8490223682331736,19955,1.3544659464011146,15.0,0,hospital_103,2.0365534998494352,S_017,0.8739459277584407
51645,-37.779667,145.131776,74 Board Street,Doncaster,14520000,house,2016,4,3,2,SC_091,0.9700429346765077,20042,4.496184531606369,0.0,1,hospital_194,1.6187305922428419,S_188,1.0650532200313065
40875,-37.700055,145.06039,576 Grimshaw Street,Bundoora,9254000,house,2010,3,1,2,SC_047,5.037232717240999,19984,2.3919311643501096,33.86666666666667,0,hospital_037,0.33327261439807726,S_155,0.5098888279416688
27221,-37.587897,144.933004,51 Woodlea Crescent,Craigieburn,6112000,house,2014,3,2,2,SC_110,1.293113714409085,40221,1.7969324382514464,45.92857142857143,0,hospital_104,7.078262260073487,S_178,0.6850251326511793
94622,-37.907302,145.051432,11 Collins Street,Ormond,15776000,house,2011,3,1,1,SC_041,2.589255648346202,19941,1.133522633417102,35.5,0,hospital_159,2.1433155188741506,S_107,1.588778316478
46427,-37.721993,145.149828,107 Franklin Street,Eltham,13260000,house,2015,3,1,2,SC_051,5.449627796909152,19987,0.956340933204796,44.0,0,hospital_075,4.302335455069005,S_194,1.0600800051366441
33365,-37.714592,144.995943,1 Griffiths Street,Reservoir,16150000,house,2011,2,1,2,SC_103,2.831862861440324,20010,1.0062008480089932,0.0,1,hospital_139,0.38008559225260985,S_030,1.994770738734123
2674,-37.813414,144.886671,105 Somerville Road,Yarraville,7650000,house,2016,3,2,3,SC_043,3.1199761372724626,19996,0.39482178900229176,15.545454545454545,0,hospital_056,2.258119922857517,S_201,1.7270709040370562
42353,-37.748936,145.077961,51 Anderson Street,Heidelberg,1416000,house,2016,4,2,2,SC_017,1.125735257073383,19936,1.2398698253531042,27.9375,0,hospital_066,1.5879449575530655,S_100,1.4138793647733061
83606,-37.854805,145.003522,19 Bowen Street,Prahran,3500000,house,2015,3,2,2,SC_066,1.2095159840547967,19946,1.0172534614684323,22.583333333333332,0,hospital_012,0.4189695484291262,S_115,0.7679758413557204
47497,-37.70330811,145.1720734,73 Milborne Crescent,Eltham,5650000,house,2010,3,2,2,SC_051,3.4740273471469236,19987,2.4209749464407366,44.0,0,hospital_075,5.834435714398729,S_194,1.7972195333764716
11746,-37.719257,144.827336,2 Loddon Avenue,Keilor,6090000,house,2012,4,1,2,SC_107,1.9709078920369894,20001,3.1616130570337546,36.05882352941177,0,hospital_005,4.718751635778988,S_222,2.296923541871297
12244,-37.71476,144.776119,12 Vanessa Way,Delahey,2790000,house,2010,3,1,2,SC_107,3.0876665030784114,20000,1.5269685333006475,39.05882352941177,0,hospital_057,6.109879460778165,S_094,1.386270135697905
9000,-37.875294,144.756046,26 Shane Avenue,Seabrook,7360000,house,2014,3,1,2,SC_092,3.106366582230237,46468,0.9676906581909659,32.75,0,hospital_073,6.70849004772135,S_007,1.4492230870797027
53866,-37.820595,144.993415,87 Rowena Parade,Richmond,18850000,house,2010,4,2,0,SC_068,1.9941929803077805,19908,0.48137768944598647,9.611764705882353,0,hospital_146,0.32097743538565143,S_076,1.2383770858922563
61869,-37.798076,145.247644,37 Jeffrey Drive,Ringwood,9010000,house,2009,5,2,0,SC_032,2.326256140949783,19879,1.5625616476702944,0.0,1,hospital_164,1.2848185175392288,S_157,0.6611894153015151
14074,-37.752582,144.895206,21 Nimmo Street,Essendon,10740000,house,2013,3,1,2,SC_082,2.26237513000438,20037,1.8865423658531564,20.88235294117647,0,hospital_184,1.4368342509299723,S_197,1.614584801194863
94419,-37.958887,145.080699,7 Augusta Square,Heatherton,7458000,house,2011,4,2,2,SC_003,1.5481404673553816,19866,2.451581460588953,36.65,0,hospital_109,0.6634400813094478,S_023,2.1845995469036543
88803,-37.949785,145.038706,34 Donald Street,Highett,5580000,house,2012,3,1,1,SC_079,0.22000287360720017,19872,0.316455282620307,39.583333333333336,0,hospital_110,1.8700028338908266,S_069,0.21979108639137682
33549,-37.721782,144.99374,10 Wattle Grove,Reservoir,15895000,house,2015,4,2,2,SC_103,2.1093740712242335,20011,1.0842789312058354,0.0,1,hospital_139,0.6038837028173899,S_030,1.249048735726506
12172,-37.70092392,144.7550507,11 Hannah Avenue,Hillside,6409000,house,2008,3,2,2,SC_048,3.7603700671160714,20000,1.6850167052307874,39.05882352941177,0,hospital_057,8.447601571342767,S_163,0.810742746328824
95039,-37.911061,145.039744,199 McKinnon Road,Mckinnon,6318000,house,2010,3,1,1,SC_046,3.168136338590439,19940,0.15203011372963587,36.5,0,hospital_126,2.134275470783058,S_107,0.9652199002981581
62254,-37.79610825,145.2412872,7 Sunhill Avenue,Ringwood,5040000,house,2009,4,2,3,SC_032,2.153175838775129,19879,1.9313538082694783,0.0,1,hospital_105,1.6804494090160573,S_157,1.2193883318887533
17192,-37.698751,144.909405,4 Marrson Place,Glenroy,7275000,house,2014,4,2,2,SC_059,2.4524394572643042,20031,0.6962128872760927,34.875,0,hospital_184,4.8627237398642595,S_209,1.5177286258804106
79931,-37.991617,145.185964,22 Finchaven Avenue,Keysborough,6344000,house,2014,3,1,2,SC_057,1.1150405201850018,19889,1.5675170867712038,50.57142857142857,0,hospital_096,1.3311423131600595,S_079,1.1959632814312497
93356,-37.98566055,145.0742035,42 Third Street,Parkdale,10430000,house,2009,3,1,0,SC_003,2.0775977623566813,19864,0.8465309194119981,40.9,0,hospital_001,0.5651751629747489,S_003,0.3140681338805765
82488,-37.997338,145.232437,A/40 Wattle Drive,Doveton,3520000,house,2014,3,1,2,SC_117,1.5862526943396584,19888,2.154716528618324,53.81818181818182,0,hospital_119,1.8010948363016035,S_184,1.7997207842609613
78239,-37.922636,145.185769,6 Kinkora Court,Mulgrave,14484000,house,2016,4,2,2,SC_073,1.8228875821206816,19913,4.122954512927664,43.958333333333336,0,hospital_161,2.987397386199978,S_047,1.4956196919779605
16831,-37.709497999999996,144.912548,22 Prospect Street,Glenroy,13520000,house,2015,3,1,1,SC_010,2.3087136276290945,20032,0.6887530592469372,32.875,0,hospital_184,3.7102435421529907,S_209,1.0811075525860134
95533,-37.903566,145.044276,310 Grange Road,Ormond,5625000,house,2010,2,1,1,SC_041,2.445973218107288,19941,0.41143059671622,35.5,0,hospital_126,2.211551143673638,S_107,1.787293727862008
27197,-37.572637,144.917998,50 Huntington Drive,Craigieburn,2190000,house,2013,5,2,2,SC_005,0.3053427135473438,40221,3.942123634128237,45.92857142857143,0,hospital_104,8.692030630507933,S_178,2.76547853696544
33958,-37.711642,145.022654,163 Boldrewood Parade,Reservoir,6222000,house,2010,2,1,1,SC_047,3.0704083019996373,20009,1.2297410484463709,0.0,1,hospital_025,1.9017960646560435,S_225,1.5708741399836745
51422,-37.778304,145.13706,43 Botanic  Drive,Doncaster,9139000,house,2012,4,2,2,SC_091,1.3798476174726113,19897,4.739174590766928,0.0,1,hospital_194,2.000132555080422,S_188,1.5024136743658691
6167,-37.78650284,144.8367462,14 centre st.,Sunshine,3528000,house,2008,4,2,0,SC_102,0.5421789507252276,20021,0.40869162116526686,25.666666666666668,0,hospital_174,1.0488659309485389,S_080,0.6300752083777046
19087,-37.688184,144.90951,60 & 62 Emu Parade,Jacana,9300000,house,2016,3,1,1,SC_059,2.1631584849357886,20031,0.9539001601273247,34.875,0,hospital_104,4.2821813127541875,S_153,1.5512490091291449
62052,-37.77486,145.242096,5 Howqua Court,Warranwood,11340000,house,2016,4,2,2,SC_032,4.3769090573925,19878,4.088997295188471,0.0,1,hospital_164,3.849956559860478,S_157,2.737321056706317
79237,-37.944478,145.162713,6 Audrey Street,Springvale,8192000,house,2014,3,1,1,SC_073,4.718247347941018,19913,0.9871830893279357,43.958333333333336,0,hospital_124,3.2914978367090186,S_075,1.3980127822508814
67610,-37.770212,145.349552,6 Reece Court,Lilydale,8755000,house,2014,4,2,2,SC_084,3.4098847232363445,19876,1.6437291712666764,0.0,1,hospital_113,1.025718853616499,S_081,1.142894017676175
30114,-37.77188873,144.9947205,45 Herbert Street,Northcote,6383000,house,2008,2,1,0,SC_103,3.651924505632833,20016,0.23049985150089883,0.0,1,hospital_035,1.5273417265835998,S_105,2.4464467126494625
32725,-37.732226,144.99011,4 Jacka Street,Preston,6985000,house,2011,3,1,2,SC_103,1.32563750057967,20012,1.1642242419395725,0.0,1,hospital_139,1.7754550248593548,S_030,0.6462066356100582
1916,-37.78663254,144.8816223,19 Inkerman Street,Maidstone,8364000,house,2009,3,2,1,SC_052,1.5853139530401723,20023,1.7204744970393577,19.6,0,hospital_056,0.8278510011444589,S_049,1.6384977793518223
15485,-37.7402153,144.9261322,8 Downes Street,Strathmore,11760000,house,2008,5,2,0,SC_082,1.9382110510866455,20035,0.3899821372611641,25.875,0,hospital_184,1.8681560994892519,S_197,1.4606382485029579
76785,-37.92193985,145.1260529,33 Wright Street,Clayton,6384000,house,2010,3,2,1,SC_087,5.4013926766420415,19915,0.5727464541063972,38.77777777777778,0,hospital_076,0.4815748150802355,S_169,0.7901098548221877
15135,-37.735488,144.908771,24 Dublin Avenue,Strathmore,8050000,house,2013,2,1,3,SC_082,0.3274992251355377,20036,1.6881496898419681,23.875,0,hospital_184,0.8251740822508683,S_197,1.0170108260143307
33109,-37.733512,145.026176,7 Cumberland Court,Preston,6600000,house,2014,3,1,2,SC_047,0.6689827724710712,20011,2.137491576218225,0.0,1,hospital_090,2.2881702090128253,S_225,0.9835970172832088
85913,-37.892993,144.999884,1/133 Cochrane Street,Brighton,6920000,house,2014,2,1,2,SC_015,3.186996039184011,19953,0.5581043351559221,19.0,0,hospital_116,1.175611519590456,S_193,0.8565850835031557
44923,-37.712224,145.105042,33 Amiet Street,Greensborough,8500000,house,2013,3,1,2,SC_017,5.815922135289393,19985,0.9628926023051892,37.86666666666667,0,hospital_075,0.7930187609970061,S_020,0.945897828609838
80762,-37.98493576,145.2250977,13 Grant Street,Dandenong,6110000,house,2009,3,1,1,SC_112,0.9121645560929641,19888,1.4603819404375984,53.81818181818182,0,hospital_119,0.538494341334587,S_184,0.7889349367841365
23994,-37.69986,144.965451,14 Glynda Street,Fawkner,7280000,house,2014,2,1,1,SC_030,3.866126450818854,19961,0.5863632017592766,0.0,1,hospital_139,3.483118881861623,S_161,1.312390841432739
83051,-37.884468,145.250972,16 Valetta Crescent,Knoxfield,6534000,house,2016,3,1,2,SC_049,5.150832606348615,19868,3.902520401201866,0.0,1,hospital_002,3.564868531186961,S_027,2.2892263006622886
96145,-37.903815,145.026799,7 Howard Avenue,Ormond,6480000,house,2012,3,1,2,SC_023,3.382720270194908,19941,1.1275481510147092,35.5,0,hospital_126,0.743461569188052,S_151,1.9294675219308193
17029,-37.701756,144.914772,3/863 Pascoe Vale Road,Glenroy,3280000,house,2015,3,2,2,SC_010,2.8068920827319257,20032,0.3772121836317685,32.875,0,hospital_184,4.593308041097937,S_209,0.9400632339098135
90098,-37.95770264,145.0623322,17 Hartwell Place,Cheltenham,4060000,house,2009,3,1,2,SC_079,2.095800198183976,19866,1.2072772798594809,36.65,0,hospital_082,0.5746406486184493,S_023,0.6042359922285376
66526,-37.774045,145.312469,5A Bellara Drive,Mooroolbark,7680000,house,2015,3,2,2,SC_084,1.774075532285097,19877,1.1915331720479962,0.0,1,hospital_113,3.9587643213490438,S_168,1.7537419625921489
14536,-37.75676727,144.9061585,5 Aberfeldie Street,Aberfeldie,7312000,house,2009,4,1,1,SC_085,2.373777581260461,20037,0.8875235232610913,20.88235294117647,0,hospital_128,1.3749773290753873,S_197,1.4142806561365746
32538,-37.745657,145.012862,3 Jackman Street,Preston,6936000,house,2010,3,1,2,SC_103,1.1745860478990986,20013,1.1185487123183766,0.0,1,hospital_035,1.9707485605735733,S_105,1.011621006960308
18316,-37.674935,144.916465,17 Talgarno Street,Broadmeadows,4410000,house,2012,3,1,1,SC_072,2.7388147928404027,20030,0.944882171354221,36.875,0,hospital_104,2.7204861823152586,S_153,0.5762221461186007
35545,-37.728758,145.018468,748 Plenty Road,Reservoir,8400000,house,2014,3,1,1,SC_047,1.5088605325415672,20011,1.3824351759196098,0.0,1,hospital_139,2.186506017281014,S_225,0.9999115927586397
31330,-37.763976,145.016486,54 Wilmoth Street,Thornbury,6640000,house,2012,3,2,3,SC_001,2.269470402657365,19930,1.6918942179100462,18.076923076923077,0,hospital_035,0.7695180503373745,S_105,1.8285550864603717
46703,-37.710147,145.151244,17 Elsa Court,Eltham,9010000,house,2014,3,2,0,SC_051,4.1289473322694965,19987,0.4840268114723487,44.0,0,hospital_075,4.035080060054428,S_194,0.8036165756430754
33029,-37.747295,145.003793,6 Yann Street,Preston,12160000,house,2011,3,1,1,SC_103,0.8735623034490428,20013,0.37383208924814926,0.0,1,hospital_035,1.77454930324632,S_105,0.4205751519349446
61118,-37.797001,145.240242,10 Graeme Avenue,Ringwood,4608000,house,2009,3,1,2,SC_032,2.021026680952536,19879,1.8818944190316418,0.0,1,hospital_105,1.5933077358690413,S_157,1.3053699043638942
53409,-37.82163239,144.9902191,5 Richmond Terrace,Richmond,18900000,house,2008,3,2,2,SC_068,1.7790567873099057,19908,0.27188641141534203,9.611764705882353,0,hospital_146,0.5009309368877175,S_076,1.4196275659925748
89287,-37.946436,145.002393,19 Arthur Street,Sandringham,9790000,house,2010,2,1,2,SC_046,3.2490246304040036,19948,0.473436050947331,28.933333333333334,0,hospital_036,0.46089764988075343,S_088,1.0355288803006408
48612,-37.800792,145.05324,6 Owen Street,Kew,15930000,house,2013,4,2,2,SC_099,2.655354193225201,19903,2.491556953856762,22.833333333333332,0,hospital_064,0.9808867698886871,S_137,1.3232838115837062
26394,-37.589122,144.930864,3 Rosewood Place,Craigieburn,6375000,house,2012,3,2,2,SC_110,1.281548895017504,40221,1.7899905911646004,45.92857142857143,0,hospital_104,6.915967097639483,S_178,0.609400096946093
39539,-37.684266,145.054135,12 Buttercup Grove,Bundoora,6050000,house,2009,4,2,2,SC_062,4.5605493353465185,20007,3.5383541710982165,0.0,1,hospital_041,1.115844610122086,S_155,1.6080196848184005
50811,-37.780337,145.108208,14 Buckingham Crescent,Doncaster,8580000,house,2010,3,2,2,SC_091,1.7354051679498566,19896,4.3577040171959345,0.0,1,hospital_194,0.9938382238274526,S_046,0.909704781570853
67987,-37.84923553,145.0157623,24 Clendon Road,Toorak,7735000,house,2010,4,2,2,SC_038,1.1686656954560541,19946,0.23637007018409575,22.583333333333332,0,hospital_132,0.8131110024874653,S_115,0.9320052982083288
21588,-37.77693939,144.9525452,821 Park Street,Brunswick,18240000,house,2009,3,2,1,SC_011,3.2596903585289625,19970,0.47397786866898073,0.0,1,hospital_102,0.7686254157517268,S_138,0.8647354657146836
85901,-37.92495728,144.9979858,1 Lynch Street,Brighton,20400000,house,2008,4,2,2,SC_046,3.8956543198097853,19950,0.7939513246230916,23.9375,0,hospital_156,1.572777453174017,S_009,1.0942573012153607
75141,-37.904147,145.065795,4 Wallace Avenue,Murrumbeena,21440000,house,2015,4,2,2,SC_087,2.2340587759757375,19918,1.4647520116691208,31.85185185185185,0,hospital_159,2.008363868903035,S_015,2.0096100846352933
94773,-37.909701,145.051418,14 Blackshaw Street,Mckinnon,9720000,house,2014,2,1,1,SC_041,2.8491765679831857,19940,1.154186106912258,36.5,0,hospital_159,1.9454248050153307,S_107,1.3661948873427563
93382,-37.99246597,145.0896912,45 Keith Street,Parkdale,7000000,house,2009,3,1,3,SC_003,2.375582441607166,19864,1.1744093341174506,40.9,0,hospital_001,1.4928719814073026,S_003,1.4419341177759901
18219,-37.686468,144.908589,147 Sunset Boulevard,Jacana,6443000,house,2016,3,1,2,SC_059,2.0911005134264475,20030,1.043078185270947,36.875,0,hospital_104,4.116057053002337,S_153,1.4811325484390554
32641,-37.737933,144.990469,342 Gilbert Road,Preston,19800000,house,2016,4,3,2,SC_103,1.0272537933647536,20012,0.8888142361597234,0.0,1,hospital_139,2.363414048640541,S_085,1.0924259333582682
84894,-37.878190000000004,144.979465,344 Barkly Street,Elwood,30420000,house,2014,4,3,3,SC_015,1.063413630571144,19955,1.4089045307108148,15.0,0,hospital_103,2.237616573987471,S_017,1.0830180284774236
29577,-37.763517,144.986425,178 Beaconsfield Parade,Northcote,4250000,house,2012,2,1,1,SC_103,2.994138181678486,20015,0.9378093444569389,0.0,1,hospital_144,1.5068654835512292,S_105,2.052440089607028
51458,-37.77905,145.129223,47 Winston Drive,Doncaster,10335000,house,2013,4,1,3,SC_091,0.9385691898373826,20042,4.524037119934923,0.0,1,hospital_194,1.387083598476749,S_188,0.9971569841005025
86610,-37.902823,144.997727,33 St James Park Drive,Brighton,25350000,house,2011,4,2,2,SC_015,4.083214097287302,19952,0.4861843611263011,20.0,0,hospital_198,1.1110828480444908,S_151,0.7480498714497387
65614,-37.7827843,145.3138765,10 Delville Street,Mooroolbark,7310000,house,2013,5,3,2,SC_084,2.742223496601797,19877,0.25424786653095377,0.0,1,hospital_113,4.280499558899016,S_224,2.1768376539660177
2419,-37.782928,144.880723,63 Ringtail Circuit,Maidstone,8040000,house,2013,4,2,2,SC_052,1.214829056746732,20023,2.140373884396161,19.6,0,hospital_056,1.2337085681892486,S_049,1.316738254946233
75855,-37.898899,145.07989,19 Skipton Road,Hughesdale,10170000,house,2014,4,2,1,SC_087,1.1762444386144995,19918,0.48913943693425754,31.85185185185185,0,hospital_166,2.291559876344697,S_167,1.1760124497250553
54774,-37.817563,145.037455,9 Vicars Street,Hawthorn,22610000,house,2014,3,1,1,SC_083,0.36262469544328824,19904,0.44365393077145826,20.714285714285715,0,hospital_086,0.6083498529022224,S_208,0.3197969960657746
73777,-37.8618,145.293619,5 Moroney Street,Boronia,6804000,house,2016,5,2,3,SC_049,3.8504920051918043,19869,0.8252772180361574,0.0,1,hospital_049,0.9629065071202393,S_146,0.6699582415367001
26983,-37.58493,144.939961,45 Flagstaff Loop,Craigieburn,5475000,house,2012,4,2,2,SC_110,1.4738721024478374,40221,1.903010109636494,45.92857142857143,0,hospital_104,7.5210773794961145,S_178,1.1383577501607018
86920,-37.904046,144.995917,6 Berwick Street,Brighton,15960000,house,2013,3,2,0,SC_015,4.156402468249863,19952,0.5948482983696212,20.0,0,hospital_198,0.9095309649325827,S_151,0.838983854932579
26087,-37.60124207,144.9425659,24 Hothlyn Drive,Craigieburn,4900000,house,2009,4,2,3,SC_110,0.41761908234042827,40221,0.09231140035683427,45.92857142857143,0,hospital_104,5.841252160743153,S_005,0.5406151847507442
82361,-37.995265,145.237273,7 Box Street,Doveton,2280000,house,2013,3,1,3,SC_077,1.4684564498335753,19888,2.487591935113179,53.81818181818182,0,hospital_119,1.9628762485934208,S_184,2.0323439034848834
30008,-37.780171,144.994858,38 Barry Street,Northcote,24140000,house,2012,3,2,1,SC_008,4.156636266350107,20017,0.30735223989752336,0.0,1,hospital_035,2.2355298847820917,S_200,2.490250484988843
88298,-37.939695,145.055412,83 Bulli Street,Moorabbin,13200000,house,2016,4,2,1,SC_046,1.4986664397154124,19872,1.535335931159144,39.583333333333336,0,hospital_110,1.7940472257843847,S_069,1.639786978988708
83993,-37.851726,145.007092,40 Chatsworth Road,Prahran,21280000,house,2015,2,2,0,SC_038,1.2459434065801946,19946,0.6084586315636807,22.583333333333332,0,hospital_132,0.3095596001027109,S_115,0.440039332083049
57808,-37.829579,145.16672,20 Gerald Street,Blackburn,7837000,house,2010,2,1,1,SC_002,1.2102934392890778,19899,1.230691277134778,0.0,1,hospital_060,1.008345842216262,S_066,0.7232866352723433
48354,-37.809996,145.058936,369 Cotham Road,Kew,34000000,house,2010,4,2,1,SC_099,1.599021880608919,19903,1.797655307560114,22.833333333333332,0,hospital_064,0.9461276789823364,S_137,1.9481733644481674
47089,-37.713037,145.161924,35 Wycliffe Crescent,Eltham,8944000,house,2012,3,2,2,SC_051,4.386705861128089,19987,1.2431438995880852,44.0,0,hospital_075,5.014562732838991,S_194,0.4088424882669251
86383,-37.923086,144.996149,23 Gray Street,Brighton,27300000,house,2012,5,3,2,SC_046,4.130761275915284,19950,0.7214038144781151,23.9375,0,hospital_156,1.3226126278126853,S_009,0.8688759372684983
69550,-37.860670999999996,145.077102,14 Duke Street,Ashburton,13140000,house,2015,3,2,2,SC_042,2.2462849715017454,19848,0.3997490032868631,35.714285714285715,0,hospital_098,0.7806832639331439,S_112,1.59856449742358
34721,-37.70706177,145.0274658,33 St Vigeons Road,Reservoir,4849000,house,2009,3,1,1,SC_047,3.514169737252927,20009,1.5834808842332446,0.0,1,hospital_025,1.769121342516513,S_225,1.989929495441108
78420,-37.928942,145.156254,867 Springvale Road,Mulgrave,11250000,house,2016,3,1,2,SC_073,3.62984343005707,19914,1.86266590034696,41.611111111111114,0,hospital_076,3.2332065373199397,S_148,2.7286908440638737
64166,-37.794557,145.293184,3 Glamis Court,Croydon,11200000,house,2011,4,2,2,SC_022,1.0218204806802929,19878,1.1114565294250915,0.0,1,hospital_164,3.618387713151884,S_181,1.0837164992314308
63092,-37.831629,145.237947,77 Viviani Crescent,Heathmont,6160000,house,2016,3,1,2,SC_032,2.2493959417825873,19871,0.6878086394440415,0.0,1,hospital_179,2.1843676436436703,S_040,2.3348487986064534
94264,-37.954416,145.08167,1 Ganton Place,Heatherton,2938500,house,2010,4,2,2,SC_003,1.970606909898738,19866,2.741669255814308,36.65,0,hospital_109,1.0931222609049827,S_023,2.337424371691546
59517,-37.805771,145.198918,19 Beaufort Street,Mitcham,6600000,house,2012,4,1,2,SC_088,2.273723869296666,19900,1.4930194494214362,0.0,1,hospital_070,0.6376656373743741,S_040,2.712532072038979
27662,-37.5710373,144.91790459999999,70 Huntington Drive,Craigieburn,9240000,house,2012,3,2,2,SC_005,0.4530938318686687,40221,4.094615829179451,45.92857142857143,0,hospital_104,8.870253987703682,S_178,2.924020907885847
6027,-37.77627,144.812991,10 Westwood Way,Albion,3616000,house,2010,3,2,1,SC_102,1.9322612108687374,20004,1.0419688163164789,28.058823529411764,0,hospital_174,1.725829981885447,S_080,1.8669198228541555
53426,-37.813199,145.002349,50 Lambert Street,Richmond,16830000,house,2016,3,1,1,SC_068,2.6713730033410434,19977,0.9205341662159935,8.333333333333334,0,hospital_134,0.29825217913931446,S_076,0.7177188748847314
78139,-37.92377,145.185324,5 Heytesbury Place,Mulgrave,4080000,house,2011,3,2,2,SC_073,1.9498287558925624,19913,4.004892396102538,43.958333333333336,0,hospital_161,2.946361366879021,S_067,1.3902448000791068
1858,-37.790455,144.881024,16 Suffolk Street,Maidstone,4365000,house,2010,2,1,1,SC_043,1.7532076343526546,20023,1.3192659590629099,19.6,0,hospital_056,0.5438726950464533,S_149,1.7532755249707745
72793,-37.86366272,145.2823029,1/8 Park Crescent,Boronia,8750000,house,2008,3,1,2,SC_049,4.1116861467100145,19869,0.4015518234804104,0.0,1,hospital_049,0.1238848944691522,S_024,0.2979628861429488
95785,-37.928216,145.034894,42 North Avenue,Bentleigh,10800000,house,2014,3,2,2,SC_046,1.2920874554166892,19938,0.34511505174420254,39.416666666666664,0,hospital_110,0.5637723597222698,S_107,1.1556395533314956
74463,-37.89611435,145.063324,1/75 Coorigil Road,Carnegie,8340000,house,2009,3,1,2,SC_041,1.329533708509135,19919,0.7485510290054767,29.892857142857142,0,hospital_159,2.9173798327050617,S_015,1.1179428188626734
86959,-37.917987,144.996492,62 Well Street,Brighton,16400000,house,2014,2,1,1,SC_046,4.386146561001196,19951,0.31799406557555127,22.0,0,hospital_156,0.8166094314790744,S_009,0.3075759229698221
19014,-37.68451,144.906895,55 Lorraine Crescent,Jacana,3064000,house,2016,3,1,1,SC_059,1.9763355680825803,20030,1.1321614425954447,36.875,0,hospital_104,3.948048877622215,S_153,1.4833987399331003
33711,-37.70022583,145.0294952,12 Muriel Court,Reservoir,3710000,house,2008,3,1,2,SC_047,4.266752107741886,20008,1.661826236551128,0.0,1,hospital_025,2.21921644741528,S_155,2.2405116779021736
4367,-37.843225,144.877198,32 Agg Street,Newport,5985000,house,2006,2,1,2,SC_033,3.249115581938483,19994,0.5655977542546572,20.608695652173914,0,hospital_141,2.479365673217221,S_056,2.8407796624043855
83797,-37.858994,145.00364,275 Dandenong Road,Prahran,4900000,house,2016,3,2,2,SC_066,1.5741731762169748,19957,1.0711912471462477,11.0,0,hospital_063,0.5874651253015036,S_115,1.2271715770116842
27858,-37.5737911,144.9237078,87 Cradle Mountain Drive,Craigieburn,5360000,house,2013,3,2,2,SC_005,0.3001956680398692,40221,3.5673246284404523,45.92857142857143,0,hospital_104,8.565858455354613,S_178,2.4259025696243603
55762,-37.847331,145.058598,5/924 Toorak Road,Camberwell,13650000,house,2010,4,2,2,SC_099,2.5594327342970216,19912,0.9004877282040575,16.928571428571427,0,hospital_168,0.35448234454163974,S_160,1.75294127231754
73986,-37.8655036,145.2601639,79 Rathmullen Road,Boronia,13560000,house,2013,3,2,2,SC_049,5.309663221426976,19869,2.20165859841008,0.0,1,hospital_002,1.320821195353278,S_024,2.1876933841188246
74987,-37.9056324,145.0609859,3 Winston Way,Murrumbeena,15470000,house,2013,4,2,2,SC_041,2.333308331515887,19919,1.8074153805480424,29.892857142857142,0,hospital_159,1.9134323201496304,S_015,2.0381057576713504
66838,-37.751742,145.337056,1/24 Kerr Street,Lilydale,9240000,house,2010,3,1,1,SC_084,2.1563968659524138,19876,1.0275996661952664,0.0,1,hospital_151,1.7196020320192842,S_233,1.3353300067955063
91551,-37.987316,145.036076,31 Hardinge Street,Beaumaris,14325000,house,2012,3,1,2,SC_079,4.27297340771407,19865,2.6234036645939756,38.9,0,hospital_055,1.6226573857967157,S_011,2.399369842312755
63583,-37.81188,145.284985,15 Gumtree Close,Croydon,8820000,house,2014,4,2,2,SC_022,1.4341333711074251,19878,1.8706218323519959,0.0,1,hospital_164,2.6253679851188463,S_055,1.315504760230324
2583,-37.78745,144.876739,9c Burns Street,Maidstone,6240000,house,2013,4,2,2,SC_043,1.5073645987389592,20023,1.7678164979756994,19.6,0,hospital_056,1.0450654088619256,S_149,1.50751768026142
68961,-37.86770248,145.0353394,24 Hunter Street,Malvern,9960000,house,2008,3,1,0,SC_023,1.153919383570223,19944,0.5552150670095224,19.695652173913043,0,hospital_183,0.5748140617797243,S_013,0.8869821420962651
78421,-37.928957,145.16753,87 Lea Road,Mulgrave,7020000,house,2012,3,2,2,SC_073,2.9999790933195194,19913,2.600275220328285,43.958333333333336,0,hospital_161,4.144250034258492,S_067,2.000551796363037
64304,-37.785484,145.268099,34 Binbrook Drive,Croydon,12172000,house,2016,3,1,2,SC_022,2.0071671457851705,19878,1.5609083442663996,0.0,1,hospital_164,2.7127871982745853,S_181,1.6304275258802576
8327,-37.752815,144.755943,25 Billungah Place,Burnside,3590000,house,2014,4,3,0,SC_048,2.549051718126735,20002,3.981957471435567,33.05555555555556,0,hospital_057,5.223919852845698,S_156,0.17224634984031253
59939,-37.822408,145.209202,4 Good Governs Street,Mitcham,9559000,house,2016,4,2,1,SC_032,2.032248444945888,19901,0.5022756847843071,0.0,1,hospital_010,1.8799999721227112,S_040,2.076125449069339
11989,-37.701683,144.755105,1 Hannah Avenue,Hillside,6045000,house,2014,4,2,2,SC_048,3.6818776121328387,20000,1.6812039866428636,39.05882352941177,0,hospital_057,8.37843782131895,S_163,0.8927844487586843
90141,-37.9671671,145.064633,18 Walker Grove,Cheltenham,7840000,house,2011,4,2,2,SC_003,2.1889877559601407,19866,0.8860466686212737,36.65,0,hospital_082,1.0142843100206136,S_023,1.155086303367132
26555,-37.599037,144.939062,33 Craigieburn Road,Craigieburn,3300000,house,2012,3,1,0,SC_110,0.11882850079416989,40221,0.4866273552450729,45.92857142857143,0,hospital_104,5.980980601266128,S_005,0.1625800705932932
60514,-37.841321,145.195083,17 Barnesdale Drive,Vermont,7425000,house,2014,4,2,2,SC_088,2.802528450607726,19900,2.6092892243093426,0.0,1,hospital_008,2.93188158233023,S_202,2.550829840054086
74295,-37.88796,145.033626,224 Kambrook Road,Caulfield,12180000,house,2011,3,2,1,SC_023,1.5404781885876482,19942,0.7802323770174414,32.5,0,hospital_081,1.6431064973386138,S_166,0.7585131755921282
17302,-37.697457,144.906467,46 Moonee Boulevard,Glenroy,4796000,house,2011,4,1,2,SC_059,2.1562890457075676,20031,0.8661257702509071,34.875,0,hospital_184,4.993299012183458,S_209,1.8135490853755718
39867,-37.680656,145.057107,18 Maculata Grove,Bundoora,11040000,house,2014,4,3,3,SC_062,4.082381978645311,45795,3.613616782625055,0.0,1,hospital_041,1.3091398532592604,S_155,2.018334876329825
21811,-37.73586,144.957889,11 Higinbotham Street,Coburg,6480000,house,2013,3,1,1,SC_030,0.7842330334392422,19964,0.5076466283580559,0.0,1,hospital_084,2.0304652656836826,S_172,0.9134916112324368
46112,-37.713925,145.124456,47 Mountain View Road,Montmorency,8085000,house,2016,3,2,2,SC_051,5.453014409973334,19986,0.3005630449793663,40.0,0,hospital_075,1.9074673909239315,S_210,2.2727522412518795
11874,-37.717417,144.826732,5 Patterson Avenue,Keilor,4880000,house,2008,4,2,2,SC_107,2.027177057448799,20001,3.191108146145776,36.05882352941177,0,hospital_005,4.907963289185319,S_222,2.3483055320297685
40354,-37.714259,145.035947,30 Green Avenue,Kingsbury,9690000,house,2010,4,2,1,SC_047,2.749031650454651,20009,2.4328925298516153,0.0,1,hospital_025,0.7042759539683084,S_225,1.3452045935594323
96327,-37.925352,145.041203,9 Vale Street,Bentleigh,12180000,house,2013,2,1,1,SC_046,1.5948072392305948,19938,0.5039092676831786,39.416666666666664,0,hospital_110,0.9407488667723843,S_107,0.6528784094365975
43116,-37.716768,145.066554,36 Sugarloaf Drive,Macleod,12100000,house,2015,4,2,2,SC_047,4.007121937645593,19983,1.0540033143709164,30.9375,0,hospital_037,1.858940684648252,S_155,2.2596131165216016
7441,-37.742749,144.767428,36 Jackson Circuit,Albanvale,5670000,house,2015,4,2,2,SC_048,2.528210103338468,20001,2.7591464098496163,36.05882352941177,0,hospital_057,4.5897176724916084,S_070,1.0411407987914656
17941,-37.668032,144.923317,1 Tawonga Street,Broadmeadows,2760000,house,2014,3,1,2,SC_072,1.9255646825384465,44817,0.8188659501520464,39.92857142857143,0,hospital_104,1.9465313930677368,S_153,1.129220264086029
73523,-37.866415,145.280813,30 Pine Crescent,Boronia,6950000,house,2015,5,3,2,SC_049,3.9390361988677456,19869,0.7342951459048529,0.0,1,hospital_049,0.45650337781395883,S_024,0.6224250246810173
5095,-37.86358,144.843746,26 Stirling Avenue,Seaholme,8300000,house,2016,3,1,1,SC_033,4.11690288113094,19927,0.5340037836237619,28.166666666666668,0,hospital_141,4.204093656597565,S_128,1.3043482867144158
81707,-37.993789,145.236143,12 Camellia Court,Doveton,2800000,house,2015,3,1,0,SC_077,1.6577080511738862,19888,2.3562963886466757,53.81818181818182,0,hospital_119,1.7890002252636357,S_184,1.8731409964761794
68902,-37.86714,145.033062,2 Hunter Street,Malvern,23140000,house,2011,3,2,3,SC_023,1.326110874879038,19944,0.34552892894755327,19.695652173913043,0,hospital_157,0.4826709442656075,S_013,0.6884798619301348
83973,-37.848613,145.000532,4 Francis Street,Prahran,9360000,house,2012,3,2,1,SC_066,0.6288264623035051,19947,0.469567357521355,20.583333333333332,0,hospital_097,0.29790969008030954,S_115,0.42098262200387265
96419,-38.002929,145.287514,105 Emily Drive,Hallam,5031000,house,2010,3,2,2,SC_115,3.418990874199662,19885,2.266831326338622,58.54545454545455,0,hospital_069,3.38158073163254,S_212,1.9274605010822037
11980,-37.712644,144.769291,1 Derribong Court,Delahey,6105000,house,2010,3,2,1,SC_048,3.3313729066861977,20000,1.352241125534609,39.05882352941177,0,hospital_057,6.648898646925519,S_094,1.3031378246898278
74958,-37.889156,145.062663,3 Beena Avenue,Carnegie,21580000,house,2015,4,3,2,SC_041,0.6033362288426461,19919,0.4298957589256082,29.892857142857142,0,hospital_108,2.4602573846599705,S_015,0.5732901415725505
44574,-37.699475,145.117474,2/7 Ellen Court,Greensborough,4689000,house,2016,3,2,1,SC_051,4.70198692236308,19985,0.9533971397556414,37.86666666666667,0,hospital_075,1.2005471048078677,S_210,1.3734920304868448
73860,-37.8514,145.282333,6 Freedman Avenue,Boronia,9690000,house,2016,3,1,1,SC_049,5.301174774932924,19869,1.0236356589833764,0.0,1,hospital_049,1.2468555744716496,S_024,1.1613957002702913
45199,-37.68387,145.104776,5 Palpera Terrace,Greensborough,4770000,house,2010,3,2,2,SC_062,3.965593839355268,19985,2.2565150236023204,37.86666666666667,0,hospital_075,2.3685518421847878,S_210,2.1500942869552495
94331,-37.960403,145.077927,24 Oakmont Crescent,Heatherton,3690000,house,2010,4,2,2,SC_003,1.5432389770006252,19866,2.1656139686167823,36.65,0,hospital_109,0.36850969995293564,S_023,1.9431837037110982
59885,-37.82346725,145.2089691,35 Purches Street,Mitcham,8554000,house,2008,4,3,2,SC_032,2.1138635702779363,19901,0.6096934701012474,0.0,1,hospital_010,1.9514352555587686,S_040,2.160898011302435
10240,-37.794886,144.93181,204/455 Macaulay Road,Kensington,6175000,house,2013,1,1,1,SC_011,1.9590223357532648,20041,0.16715164879280822,13.882352941176471,0,hospital_114,0.1328556784823024,S_086,0.9250615117892642
58797,-37.80741501,145.1748047,27 Tasman Avenue,Nunawading,6800000,house,2008,3,1,1,SC_002,1.3632294698187177,19899,1.4680879183756823,0.0,1,hospital_070,1.6930622490758749,S_202,1.840387715626287
1645,-37.811168,144.879258,102 Wales Street,Kingsville,11594000,house,2011,4,1,2,SC_043,2.4972909564174848,19996,1.0738280758816092,15.545454545454545,0,hospital_056,2.0984053281129205,S_201,2.0163608418899246
64387,-37.800269,145.298051,387 MT DANDENONG ROAD,Croydon,7980000,house,2015,4,2,2,SC_022,1.323488372534574,19878,1.6266949301921034,0.0,1,hospital_164,3.8263639445202697,S_224,1.101642010107821
92507,-37.984421,145.08978,1 McSwain St,Parkdale,9200000,house,2013,3,1,1,SC_003,1.4807339475381305,19864,1.5237793974363107,40.9,0,hospital_001,1.639011211912668,S_003,1.107296720574405
21060,-37.77587891,144.9573669,326 Barkly Street,Brunswick,7248000,house,2009,2,1,0,SC_011,3.698673207360371,19969,0.1548111330760546,0.0,1,hospital_102,1.202537406282119,S_138,0.44006789293069676
17989,-37.674213,144.925709,10 Mirboo Court,Dallas,3720000,house,2011,3,1,1,SC_072,2.62925531157271,20030,1.1206903167243274,36.875,0,hospital_104,2.6589465311012774,S_153,0.5604900198207486
82777,-37.90135193,145.2710571,4 Webb Court,Rowville,4600000,house,2009,4,2,2,SC_049,3.3558426781167072,19868,3.050242947990914,0.0,1,hospital_150,3.720519682533716,S_199,2.18168604232688
78565,-37.958044,145.159074,12 Gunther Avenue,Springvale,11712000,house,2016,3,1,2,SC_057,4.058361544271736,19891,0.3712237185605034,45.95652173913044,0,hospital_124,2.2281729079504435,S_075,0.8290435294333982
58151,-37.824289,145.151231,47 Gardenia Street,Blackburn,15750000,house,2012,4,2,2,SC_002,1.8619897103276284,19898,0.4816122969758284,0.0,1,hospital_060,1.0551954512578205,S_018,0.8649820548001521
91646,-37.978418,145.03885,415 Balcombe Road,Beaumaris,12100000,house,2013,4,2,2,SC_079,3.2657487311070885,19866,1.9015959770404354,36.65,0,hospital_055,1.1716866351598927,S_011,2.0984769935058414
85226,-37.893591,145.006963,11 Nagle Avenue,Elsternwick,16640000,house,2013,3,1,2,SC_015,3.606045011606252,19953,0.42386241645276734,19.0,0,hospital_013,0.6261236637327733,S_193,0.738552364341328
95792,-37.903424,145.03325,428 North Road,Ormond,13950000,house,2016,4,2,3,SC_041,3.050039339536943,19941,0.5594277712800988,35.5,0,hospital_126,1.2581915950846259,S_107,1.9541711498622172
90979,-37.96308136,145.0449066,7 Wembley Avenue,Cheltenham,10965000,house,2008,3,2,2,SC_079,1.588750396207057,19866,0.9355357205540872,36.65,0,hospital_082,1.0838307768297444,S_023,1.0390687629115412
78755,-37.957974,145.155979,2 Adrian Street,Springvale,7730000,house,2016,4,3,2,SC_057,4.15738451016204,19891,0.622816523519374,45.95652173913044,0,hospital_124,2.440476506659893,S_075,0.6302926473085007
57672,-37.832844,145.164073,15/231-239 Canterbury Road,Blackburn,7010000,house,2015,3,2,2,SC_002,1.6343901066459792,19899,1.6618016543742284,0.0,1,hospital_060,0.7028517607903209,S_066,0.3338154210624895
55153,-37.846132,145.094082,18 Lesley Street,Camberwell,9600000,house,2011,4,2,1,SC_042,3.4815806976884494,19849,1.3373461701240776,33.714285714285715,0,hospital_089,1.2570095178879563,S_112,2.2609172127790473
78183,-37.930834,145.174371,53 Hansworth Street,Mulgrave,5112000,house,2013,3,1,2,SC_073,2.9183043755596425,19913,2.7738525310661366,43.958333333333336,0,hospital_161,3.510268804085895,S_067,1.3667693013433406
32409,-37.73452759,145.0252075,25 Laha Crescent,Preston,10710000,house,2009,3,1,1,SC_047,0.6348036018519134,20011,2.0895192995518466,0.0,1,hospital_090,2.2952668522737274,S_225,1.1146152377847094
29509,-37.773941,145.007381,16 Ellesmere Street,Northcote,12885000,house,2015,2,1,0,SC_001,3.1011472505045066,19929,0.5888902681879977,16.076923076923077,0,hospital_035,1.228509221900379,S_105,2.5671221104730337
71826,-37.859828,145.230664,8 Trentham Court,Wantirna,13200000,house,2015,4,3,2,SC_032,5.242770369149454,19871,3.71363436406888,0.0,1,hospital_179,1.1883154126357625,S_226,1.193588221708593
63132,-37.83216476,145.2533417,9 Bronaldi Street,Heathmont,4660000,house,2008,4,2,0,SC_032,3.0528858586352925,19871,0.8830214290541438,0.0,1,hospital_105,2.5086695771659646,S_139,1.6927489925403414
96564,-38.007476,145.282853,17 Hyssop Drive,Hallam,2720000,house,2010,3,1,2,SC_077,3.040950807907583,19885,1.618878777801822,58.54545454545455,0,hospital_069,3.188365065065533,S_212,1.5385201594476543
18459,-37.674659,144.916728,21 Talgarno Street,Broadmeadows,3465000,house,2010,3,1,2,SC_072,2.70438816939879,20030,0.967952680181851,36.875,0,hospital_104,2.6871162820654826,S_153,0.5778611591053614
36830,-37.626476,145.028769,134 Epping Road,Epping,5918000,house,2010,4,2,2,SC_062,5.734103261848923,20005,2.8868171725732936,0.0,1,hospital_053,2.9963926672117056,S_196,2.093656004642785
75428,-37.898637,145.062522,71 Woornack Road,Carnegie,13872000,house,2013,4,1,2,SC_041,1.5824352303885094,19919,1.0315755800815787,29.892857142857142,0,hospital_159,2.6478295559160836,S_015,1.3323435224003364
83427,-37.852345,144.984226,114 Punt Road,Windsor,12100000,house,2014,4,2,3,SC_066,0.9955184457953816,19958,0.5867081898628584,9.0,0,hospital_155,0.7654259834659938,S_017,1.8583950183790927
9014,-37.875007,144.762099,29 Seabrook Boulevard,Seabrook,4740000,house,2010,3,2,1,SC_092,3.552855588810078,19924,0.9420214425853088,30.75,0,hospital_073,7.24118219826719,S_007,1.887400407947938
27880,-37.580063,144.907293,9 Applewood way,Craigieburn,4640000,house,2014,2,1,2,SC_005,1.3119222600787177,40221,3.995329477448602,45.92857142857143,0,hospital_104,7.947476369802049,S_178,2.8208027036368883
26014,-37.609137,144.922509,22 Waterford Avenue,Craigieburn,7055000,house,2014,4,2,2,SC_110,1.9566992139806954,40221,2.008085499917568,45.92857142857143,0,hospital_104,4.630013395527447,S_005,1.8964854767736203
12282,-37.694368,144.752729,13 Michael Court,Hillside,3942000,house,2015,3,2,2,SC_048,4.4082641790562995,20000,2.033797207201709,39.05882352941177,0,hospital_057,9.15187402198069,S_163,0.06308970393718116
86288,-37.9041748,144.9957886,2 Berwick Street,Brighton,9380000,house,2009,3,2,1,SC_015,4.166382340566129,19952,0.6039381469971905,20.0,0,hospital_198,0.8913945800106398,S_151,0.8457368204182145
77349,-37.925227,145.150369,1/15 Highfield Avenue,Mulgrave,3840000,house,2016,3,1,1,SC_073,3.7711703795587446,19914,1.7905634595443605,41.611111111111114,0,hospital_065,2.630999208365613,S_148,2.4827214021412156
92777,-37.98485184,145.085907,16 Meribah Court,Parkdale,7680000,house,2009,4,2,1,SC_003,1.552296851293471,19864,1.2430288624089432,40.9,0,hospital_001,1.3144001926119635,S_003,0.7716502621343515
74817,-37.900177,145.064359,217 Murrumbeena Road,Murrumbeena,10934000,house,2010,2,1,2,SC_041,1.7885637017156149,19919,1.1419537594871845,29.892857142857142,0,hospital_159,2.4582656673043073,S_015,1.5562508571249634
56292,-37.847009,145.122951,18 Summit Road,Burwood,26400000,house,2016,4,1,2,SC_037,3.1132148673732205,20042,3.0960999701457235,0.0,1,hospital_047,1.045556049121967,S_097,1.1929892515297127
66230,-37.785849,145.30655,31 Mount View Parade,Mooroolbark,4017000,house,2016,3,2,2,SC_022,2.5364814055291345,19877,0.5292313911316928,0.0,1,hospital_113,5.00754560684283,S_224,1.8440163507761191
80966,-37.98056412,145.2115021,2/1 Day Street,Dandenong,2184000,house,2007,2,2,1,SC_112,0.7906770756542004,19888,1.0583463509169253,53.81818181818182,0,hospital_033,0.6175631360883579,S_183,0.32764055421248156
8480,-37.758859,144.756978,4 Landy Court,Burnside,3150000,house,2012,4,2,2,SC_048,3.1880541058734346,20002,4.098755348086364,33.05555555555556,0,hospital_057,5.065526038138513,S_156,0.7028992185017484
36214,-37.663774,145.033322,17 Mindoro Cres,Lalor,6936000,house,2010,3,1,1,SC_062,4.791543974689227,20005,1.298548950576405,0.0,1,hospital_053,2.010720208348851,S_229,1.2276047794966596
28683,-37.80463791,144.9857636,7/120 Cambridge Street,Collingwood,5535000,house,2008,2,1,2,SC_008,1.6144820571254226,19976,0.7025035816378179,10.333333333333334,0,hospital_170,0.5975866381628487,S_175,0.20372220130178284
53400,-37.819831,145.005716,5 Hunter Street,Richmond,12180000,house,2010,3,1,0,SC_038,2.3194839336396944,19906,0.8754596311502585,10.857142857142858,0,hospital_122,0.1841192442058564,S_076,1.4462732817869075
46285,-37.721013,145.122166,9 Sylvan Street,Montmorency,9720000,house,2016,3,3,2,SC_009,5.63744828897622,19986,0.6389435471746189,40.0,0,hospital_075,2.2773034976822144,S_210,2.6365514495602085
28645,-37.802265,144.988804,54a Dight Street,Collingwood,20910000,house,2015,3,2,2,SC_008,1.980161839823378,19976,0.5025522904520446,10.333333333333334,0,hospital_170,0.964771789750683,S_175,0.4520603896347856
54053,-37.823888,145.037632,12 Launder Street,Hawthorn,22100000,house,2014,3,2,2,SC_083,0.42096054072841793,19904,0.2892189676188049,20.714285714285715,0,hospital_127,0.28703015511734586,S_208,0.4766345501630346
64612,-37.797727,145.297968,5/26 Pascoe Avenue,Croydon,5100000,house,2013,3,2,2,SC_022,1.3183271164641754,19878,1.5490367924572144,0.0,1,hospital_164,3.890894654002102,S_224,1.1947572278793892
33558,-37.697693,145.021231,100 Cheddar Road,Reservoir,5130000,house,2016,2,1,1,SC_047,4.617948602003662,20008,0.8812396674141515,0.0,1,hospital_025,2.88768072240877,S_228,2.8008260690521554
45120,-37.69807,145.105359,45 Manatunga Circuit,Greensborough,5500000,house,2013,4,2,2,SC_062,5.452527776309699,19985,0.7026675797593106,37.86666666666667,0,hospital_075,0.7871712970406409,S_210,0.6120501501639678
69508,-37.86185,145.076872,12A Duke Street,Ashburton,8100000,house,2011,3,2,2,SC_042,2.151151406506839,19848,0.3932137648394389,35.714285714285715,0,hospital_098,0.7477010764711317,S_112,1.5695825000234973
12881,-37.692848,144.760713,3 Carrington Street,Sydenham,5796000,house,2015,3,2,2,SC_048,4.774787449052974,20000,1.502264944858284,39.05882352941177,0,hospital_057,8.895215451519814,S_163,0.7625612394356613
76729,-37.919332,145.142913,27A Renver Road,Clayton,5511000,house,2010,3,1,1,SC_073,4.050126001948905,19915,2.053397912950305,38.77777777777778,0,hospital_065,1.8661247283068272,S_169,2.2564681585544815
29455,-37.771705,145.007508,15 Glanfield Street,Northcote,14620000,house,2012,3,1,1,SC_001,3.0459594028100674,19929,0.8354040916523632,16.076923076923077,0,hospital_035,0.9793743135303833,S_105,2.322119457420784
32943,-37.733546,145.002076,53 William Street,Preston,7480000,house,2015,3,1,2,SC_103,0.6722241687793613,20011,0.5758042829446681,0.0,1,hospital_139,1.8134488087987324,S_085,0.4047658755344362
15771,-37.745851,144.886093,49 Ida Street,Niddrie,8000000,house,2014,4,1,2,SC_082,2.164560062532417,20037,2.880991621740312,20.88235294117647,0,hospital_184,1.7169299261345539,S_197,2.149921672162906
94065,-38.059312,145.131612,91 Scotch Parade,Bonbeach,7524000,house,2016,3,1,0,SC_070,5.521014372262975,19859,1.1212181917814883,51.23529411764706,0,hospital_096,8.086510631922694,S_077,1.4848774561050102
26485,-37.5901,144.924457,31 Banbury Crescent,Craigieburn,5542000,house,2010,3,1,1,SC_016,0.9867798984700201,40221,2.1140559985798606,45.92857142857143,0,hospital_104,6.754881052039684,S_178,0.9470999650971212
18948,-37.67381668,144.9494019,5 Garner Parade,Dallas,2090000,house,2009,2,1,1,SC_072,3.5113181229846697,19960,0.892830732164748,0.0,1,hospital_104,3.625934861267059,S_161,1.9157091815036815
67175,-37.764317,145.37301,2 Parkside Close,Lilydale,7920000,house,2014,3,2,2,SC_084,5.244046882524902,19876,2.4324490170915065,0.0,1,hospital_113,1.6244437952662922,S_081,2.1192494038704366
33757,-37.7125011,145.0101316,13 Cheddar Road,Reservoir,4900000,house,2012,2,1,1,SC_103,3.099656363363936,20009,0.5153093748327139,0.0,1,hospital_139,1.2034586299105705,S_225,2.142434024826737
8631,-37.753362,144.779591,7 Lomandra Way,Cairnlea,8480000,house,2014,4,2,2,SC_107,3.795563016651073,20002,2.034289790234907,33.05555555555556,0,hospital_057,3.173143600979218,S_152,0.3773515707917576
19990,-37.788932,144.942317,78 Flemington Road,Parkville,6000000,house,2011,3,1,0,SC_011,2.4155355444267457,19971,0.27772832845927586,0.0,1,hospital_024,0.9376158814173695,S_086,1.2849722237133976
9333,-37.847712,144.722974,16 Merribah Way,Truganina,3420000,house,2014,4,2,2,SC_053,1.6082219947065997,46468,3.2721215039841867,32.75,0,hospital_073,5.041367050552254,S_007,2.810073014058584
42139,-37.767105,145.064959,36 Outlook Drive,Eaglemont,41280000,house,2012,4,2,3,SC_017,1.3009756910548547,19934,1.04559676495936,25.071428571428573,0,hospital_046,1.1385081942296915,S_100,0.935600132153274
10882,-37.79626083,144.9334412,8 Albermarle Street,Kensington,11339000,house,2008,3,1,0,SC_011,2.1687365931855562,19972,0.32670384052691803,0.0,1,hospital_114,0.32879052517268403,S_086,1.1232067010006705
87933,-37.936035,145.022326,71b Teddington Road,Hampton,8960000,house,2016,3,2,2,SC_046,1.458128694479318,19937,1.2791218239188233,38.4,0,hospital_110,1.312795119020127,S_214,1.0442961628173588
34336,-37.716991,145.004427,22 Olive Street,Reservoir,8000000,house,2010,2,1,1,SC_103,2.524424857391148,20010,0.22650965786365257,0.0,1,hospital_139,0.5644083343747308,S_085,2.2464039044913937
11727,-37.72595596,144.8372498,18 Horseshoe Bend Road,Keilor,7350000,house,2009,3,1,1,SC_107,2.6327469366456695,20001,3.8487634948349845,36.05882352941177,0,hospital_005,4.303010745179586,S_222,2.948033966707287
53118,-37.825537,145.007587,357 Burnley Street,Richmond,6432000,house,2014,3,1,2,SC_038,1.674571454824461,19906,0.22523596909704544,10.857142857142858,0,hospital_122,0.7069771058890029,S_102,1.6496117046119236
28988,-37.799493,144.996479,31 Turner Street,Abbotsford,23100000,house,2016,4,3,0,SC_008,2.7171088244326884,19975,0.18220358896098993,11.333333333333334,0,hospital_134,1.4382252626662153,S_076,1.1281037386390995
19380,-37.656738,144.929732,26 NORVAL CRESCENT,Coolaroo,2910000,house,2010,3,1,1,SC_072,0.9393127036542503,44817,0.5747369613364921,39.92857142857143,0,hospital_104,1.061208966117436,S_153,2.4812370100028356
50268,-37.774338,145.090524,49 Robinson Grove,Bulleen,9075000,house,2010,3,1,1,SC_009,0.9748265436247155,19935,3.253954343752122,26.176470588235293,0,hospital_194,2.1753707097978547,S_154,0.877208312931074
84441,-37.857587,145.008012,9 Vail Street,Prahran,2992500,house,2011,2,1,0,SC_066,1.7094682628116464,19946,0.9185923571227381,22.583333333333332,0,hospital_132,0.3934726889636017,S_115,1.0892450129723903
67670,-37.739384,145.339565,72 Kingsburgh Lane,Lilydale,5040000,house,2009,4,3,3,SC_084,3.0746376439260454,19876,1.9337790833329418,0.0,1,hospital_151,2.1029125481220357,S_233,2.2667023950618628
85743,-37.889222,145.006307,56 Downshire Road,Elsternwick,39950000,house,2014,4,3,2,SC_015,3.206468814607241,19954,0.6879667582079468,16.9375,0,hospital_116,0.49055758774596714,S_193,0.2488127044026961
51707,-37.789633,145.137721,88 Church Road,Doncaster,12495000,house,2014,3,1,3,SC_091,1.0702631927177555,19897,3.4771231769626993,0.0,1,hospital_194,2.6856363597511628,S_188,1.242134723210133
63715,-37.793290999999996,145.256665,18 Kalinda Road,Croydon,6750000,house,2016,3,1,1,SC_022,2.411295098114535,19878,2.1187434325648256,0.0,1,hospital_164,1.613409848445944,S_157,0.4576710565774008
29359,-37.772834,145.007909,129 Mitchell Street,Northcote,14700000,house,2014,3,2,2,SC_001,3.0311602759317644,19929,0.7078348447090884,16.076923076923077,0,hospital_035,1.1046134916005534,S_105,2.4516722563699185
10738,-37.781808,144.924699,61 Canterbury Street,Flemington,8080000,house,2016,3,1,1,SC_011,0.7556219382193253,20040,0.7206068816886414,14.875,0,hospital_007,0.8079083173413455,S_086,0.6600376529745856
22524,-37.746322,144.947448,3 Bruce Street,Coburg,8380000,house,2014,4,2,2,SC_030,1.5669109031469812,19965,1.466950845791362,0.0,1,hospital_084,1.2950238310010997,S_172,1.6490384887059395
6758,-37.77955,144.816957,48 Derrimut Street,Albion,9120000,house,2011,4,1,1,SC_102,1.4941466363614253,20004,0.7135412315794701,28.058823529411764,0,hospital_174,1.3851208588905928,S_080,1.4387311834362848
43846,-37.713686,145.089117,53 Elder Street,Watsonia,3960000,house,2012,3,1,2,SC_017,5.022465373971787,19984,0.5585701753065113,33.86666666666667,0,hospital_075,1.755857111035923,S_020,1.389784801459906
47680,-37.807478,145.041451,1 Hillcrest Avenue,Kew,25350000,house,2013,3,1,2,SC_083,1.5351527074073021,19904,1.6183748570087404,20.714285714285715,0,hospital_064,0.6178077367446001,S_039,0.9461238174125916
83273,-37.886074,145.25656,68 King Parade,Knoxfield,4950000,house,2011,4,2,2,SC_049,4.633441059046066,19868,3.4340530354233674,0.0,1,hospital_049,3.4798274456223646,S_027,2.570330053799209
40974,-37.695059,145.069004,6 Verdi Court,Bundoora,8580000,house,2010,4,2,1,SC_062,5.043082561914828,19984,2.1974804257026817,33.86666666666667,0,hospital_041,0.6668979478798184,S_155,1.3100815517390705
91155,-37.982815,145.041966,102 Oak Street,Beaumaris,10200000,house,2014,3,2,3,SC_079,3.7502033351724173,19865,2.038306354826493,38.9,0,hospital_055,0.9399507728882608,S_011,1.8010072624913493
22236,-37.7438736,144.9591675,2 Nelson Street,Coburg,7370000,house,2009,3,1,0,SC_030,1.5043962388237309,19965,0.4044945305395518,0.0,1,hospital_084,1.1399627842089948,S_172,0.5877995246675995
35804,-37.712119,145.02171,97 & 99 Whitelaw Street,Reservoir,12870000,house,2010,5,2,2,SC_047,3.038293184176054,20009,1.172130412538264,0.0,1,hospital_025,1.9657022704280065,S_225,1.5522470402945072
59151,-37.813668,145.166822,9 Almer Avenue,Nunawading,11100000,house,2013,3,1,0,SC_002,0.7555119356409706,19899,1.0486008643809102,0.0,1,hospital_060,2.3460703855639418,S_202,1.4081245887842158
78511,-37.943523,145.165461,10 Birmingham Street,Springvale,6915000,house,2011,3,1,1,SC_073,4.521303701352709,19913,1.247125451121262,43.958333333333336,0,hospital_124,3.3021466646618323,S_075,1.6453772535126556
3379,-37.821104,144.88116,33 Bena Street,Yarraville,5630000,house,2011,3,1,1,SC_033,3.087813765475055,19996,0.9681170316774291,15.545454545454545,0,hospital_056,3.14510489800383,S_201,2.707593847102147
59609,-37.829871,145.205749,20 Churinga Avenue,Mitcham,9300000,house,2010,3,1,2,SC_088,2.583481871149432,19901,1.369570016660948,0.0,1,hospital_010,2.3918660705451162,S_202,2.67981220430601
55749,-37.846342,145.077968,5 Lodge Road,Camberwell,16110000,house,2014,4,2,2,SC_099,3.011197242582751,19850,0.3371739244730927,31.714285714285715,0,hospital_089,1.8831723377519105,S_160,1.403308280577323
86419,-37.917495,145.004711,25 Laburnum Street,Brighton,28500000,house,2015,4,3,2,SC_046,3.8367521733537022,19951,0.784070777317429,22.0,0,hospital_156,1.3195035578638612,S_009,0.8246042604847259
72242,-37.849403,145.259131,26 Yarran Grove,Bayswater,3484000,house,2013,3,1,0,SC_032,4.87323845356419,19870,1.1645510617505008,0.0,1,hospital_002,1.0435156384088586,S_139,0.9889278528393084
52780,-37.812828,145.006798,24 Leslie Street,Richmond,16660000,house,2013,3,1,0,SC_083,2.6708434698082875,19977,1.2861579174951616,8.333333333333334,0,hospital_134,0.31738164414202696,S_076,1.0502165630807085
88446,-37.950115,145.027923,12 Nicol Street,Highett,20480000,house,2014,4,2,2,SC_079,1.159374833271781,19872,1.238789429413231,39.583333333333336,0,hospital_058,1.498799677523099,S_214,0.7296019749205777
84794,-37.881902,144.98956,24 Austin Avenue,Elwood,12080000,house,2011,3,2,1,SC_015,1.6636832014546141,19955,0.8331872473235458,15.0,0,hospital_116,1.7845283018599136,S_133,1.0360169088275086
63038,-37.826901,145.234342,6 Woodlands Road,Heathmont,4750000,house,2012,3,1,1,SC_032,1.6481739507486202,19871,0.9118402264449188,0.0,1,hospital_105,1.9154124491172426,S_040,1.7351616286121603
93289,-37.998723,145.092841,38 Kershaw Street,Mordialloc,12032000,house,2011,4,2,3,SC_003,3.0892769024231295,19863,0.9859582470255295,44.36842105263158,0,hospital_001,1.973080726963988,S_119,1.1711462787105018
74635,-37.900643,145.062823,152 Oakleigh Road,Carnegie,15120000,house,2016,4,1,2,SC_041,1.806347501693995,19919,1.2295077030138897,29.892857142857142,0,hospital_159,2.4230735664133736,S_015,1.5487616183656538
7117,-37.778152,144.818126,9 Wyalong Street,Albion,8448000,house,2014,4,2,2,SC_102,1.4362675735067367,20004,0.5813864135044874,28.058823529411764,0,hospital_174,1.2677787675252299,S_080,1.3729049481545583
80031,-38.003704,145.178286,28 Glenfern Street,Keysborough,5628000,house,2016,4,2,2,SC_057,1.2970086509712242,19889,3.064315344875128,50.57142857142857,0,hospital_096,1.290450736111118,S_079,1.2892562292549425
73430,-37.86196899,145.262085,29 Rathmullen Road,Boronia,5250000,house,2009,3,1,1,SC_049,5.429820879760688,19869,1.9671079716802469,0.0,1,hospital_002,0.9004779526399147,S_024,1.9773883166870903
32766,-37.74713,144.982641,42 Goodwin Street,Preston,8400000,house,2012,3,1,0,SC_103,1.8959175654483105,20013,1.551461762134176,0.0,1,hospital_144,1.4121174451556222,S_173,1.5343532420161194
80239,-38.003868,145.15569,4 Prospect Terrace,Keysborough,7700000,house,2014,3,2,2,SC_057,1.983260653167942,19889,4.249053466700697,50.57142857142857,0,hospital_096,1.7618566547289267,S_079,1.8993615986432144
17397,-37.708559,144.909349,52 Gladstone Parade,Glenroy,8064000,house,2014,3,1,1,SC_010,2.0638901064672983,20032,0.8252757444172588,32.875,0,hospital_184,3.7747615951120195,S_209,1.321355823967018
3202,-37.81694412,144.8932343,25 Schild Street,Yarraville,3520000,house,2008,2,1,0,SC_043,3.8085417313615877,19996,0.3147473625689846,15.545454545454545,0,hospital_056,2.7220193333650045,S_201,1.851290432827576
75266,-37.905231,145.071824,51 Kinlock Avenue,Murrumbeena,8710000,house,2011,3,1,2,SC_087,2.058853919508448,19918,1.2601105021249983,31.85185185185185,0,hospital_159,1.9332378708122557,S_167,2.058614926710336
86764,-37.912797,144.996231,43A Carpenter Street,Brighton,17760000,house,2011,3,3,2,SC_046,4.744371190795428,19951,0.2602619806724114,22.0,0,hospital_156,0.42633520564089217,S_150,0.22313145227713435
62374,-37.809752,145.219321,9 Hearthside Court,Ringwood,8820000,house,2014,4,2,2,SC_032,0.8993752382873236,19902,1.089098082115607,0.0,1,hospital_105,2.094830525740281,S_040,0.864807564294307
52204,-37.822952,145.010613,12 Glasshouse Street,Richmond,4745000,house,2014,3,2,2,SC_038,1.9722224792938094,19906,0.5791654300040429,10.857142857142858,0,hospital_122,0.6957747416963607,S_102,1.947549398079498
55417,-37.841781,145.065501,28 Acheron Avenue,Camberwell,16640000,house,2010,4,2,1,SC_099,2.0490686375881695,19851,0.7960352636714707,29.714285714285715,0,hospital_168,1.038621774958081,S_160,0.896375027745767
86092,-37.9191933,144.9904547,12A Dendy Street,Brighton,23400000,house,2010,3,2,2,SC_046,4.773866179972078,19951,0.6837860975231432,22.0,0,hospital_156,0.8318499253873081,S_009,0.6365270529869093
14494,-37.74919891,144.9007111,46 Hedderwick Street,Essendon,12000000,house,2009,3,2,1,SC_082,1.7468086335070097,20037,1.559798203239712,20.88235294117647,0,hospital_184,0.8586427321763007,S_197,1.003459543206838
72756,-37.86718,145.267375,1/31 Manuka Drive,Boronia,3720000,house,2008,4,1,2,SC_049,4.698464391919726,19869,1.6720094029444736,0.0,1,hospital_002,1.3056232066181361,S_024,1.6313671862643655
71369,-37.85144,145.236829,3 Albany Court,Wantirna,10114000,house,2016,4,2,2,SC_032,4.36376826885003,19871,2.6615276392661524,0.0,1,hospital_179,0.8471095319595792,S_226,2.2421938131382033
74610,-37.88476562,145.0656891,14/1162 Dandenong Road,Carnegie,7232000,house,2009,3,2,2,SC_041,0.617555661131647,19919,0.6226227202859083,29.892857142857142,0,hospital_108,2.0125586956789454,S_048,0.6684091249669847
8857,-37.882624,144.759192,132A Seabrook Boulevard,Seabrook,5865000,house,2013,2,1,1,SC_092,2.920112540693018,46468,1.7557234208461294,32.75,0,hospital_073,7.003538728658454,S_001,2.105658231058065
64118,-37.78512955,145.2814484,29 Grandview Avenue,Croydon,4160000,house,2010,1,1,0,SC_022,1.5600883340108045,19878,1.1498295823736884,0.0,1,hospital_164,3.3939584734974115,S_181,1.2107097070068678
73601,-37.865242,145.272627,37 Rankin Road,Boronia,3870000,house,2016,3,1,2,SC_049,4.5088807435178335,19869,1.1628096814021438,0.0,1,hospital_049,0.9336630185907395,S_024,1.1229241315212186
27819,-37.587539,144.935026,8 Stoneleigh Place,Craigieburn,3780000,house,2012,3,2,2,SC_110,1.257521533736259,40221,1.749660158103544,45.92857142857143,0,hospital_104,7.147593299019118,S_178,0.7248912246064287
52886,-37.82252121,145.0119324,28 Tudor Street,Richmond,9012000,house,2008,3,1,3,SC_038,2.035097291814451,19906,0.6802753151295919,10.857142857142858,0,hospital_122,0.7815463232216568,S_102,2.0106670574357426
41461,-37.74048615,145.0887451,11 Christine Street,Viewbank,5925000,house,2009,3,2,2,SC_017,2.4616073492293227,19936,2.0075803827272813,27.9375,0,hospital_066,2.8867588393323205,S_100,2.741981757196947
31841,-37.737409,145.01077,13 Pender Street,Preston,10790000,house,2015,3,1,1,SC_103,0.8133066516829937,20012,0.913076233834565,0.0,1,hospital_139,2.4759945455606713,S_084,0.6987484741476814
69979,-37.87120056,145.1023865,35 Jordan Street,Ashwood,9486000,house,2009,3,1,0,SC_042,1.1754126813075387,19840,0.8936429297184993,27.933333333333334,0,hospital_089,1.695581857411777,S_112,0.9249314088122252
55137,-37.842369,145.080271,174 Wattle Valley Road,Camberwell,33450000,house,2014,5,3,3,SC_099,2.801352407332233,19850,0.4515231359089911,31.714285714285715,0,hospital_089,2.0731889852579974,S_160,1.156355311558355
51965,-37.800527,145.17048,6 Ananda Court,Donvale,6325000,house,2012,4,2,2,SC_002,2.09991774551783,19899,2.2682508878617633,0.0,1,hospital_034,1.148922269208587,S_202,2.651424116225198
95185,-37.928511,145.038191,22 Atkinson Street,Bentleigh,11570000,house,2013,3,1,1,SC_046,1.2233364020794688,19938,0.44399136952404183,39.416666666666664,0,hospital_110,0.5203969973374691,S_107,1.0570800106868248
4201,-37.834911,144.880134,19 Blackshaws Road,Newport,7880000,house,2011,4,2,0,SC_033,3.074404887877754,19995,0.6972345117373032,18.545454545454547,0,hospital_141,3.220073445715458,S_056,2.9621825585911843
77169,-37.92884445,145.1043396,22 Elder Street,Clarinda,6820000,house,2009,3,2,1,SC_003,4.894445106341582,19915,1.4955739638213974,38.77777777777778,0,hospital_076,1.6285000393891567,S_170,1.2156085441062698
76922,-37.914284,145.114855,58 Fulton Street,Clayton,29550000,house,2015,5,3,2,SC_087,4.102132556422893,19916,1.1556748313969203,35.851851851851855,0,hospital_065,0.7533331729616473,S_169,1.338972901276775
66601,-37.784621,145.33002,63 Lancaster Road,Mooroolbark,4008000,house,2015,3,1,2,SC_084,3.268998883999032,19877,1.549991334067258,0.0,1,hospital_113,3.331952420880681,S_224,2.607110319567762
39758,-37.682807,145.051395,15 Windmill Street,Bundoora,4455000,house,2011,4,2,2,SC_062,4.586908017867464,20007,3.281408383422612,0.0,1,hospital_041,1.4016955499892914,S_155,1.7952988995200008
93398,-37.996713,145.09236,46 Warren Road,Mordialloc,9735000,house,2015,3,1,2,SC_003,2.862350913665377,19863,1.1735171422738793,44.36842105263158,0,hospital_001,1.8420983391215897,S_119,1.357522215624628
71913,-37.852513,145.268196,1/102 Scoresby Road,Bayswater,6490000,house,2012,3,1,2,SC_032,5.6192826113437695,19870,1.2003391479113519,0.0,1,hospital_002,0.3289996418863836,S_139,1.0684839953725744
16825,-37.708829,144.919566,22 Lewis Street,Glenroy,3816000,house,2012,3,1,2,SC_010,2.928551352370443,20032,0.5205871668092577,32.875,0,hospital_184,3.938316715469669,S_209,0.501654230721224
65409,-37.809354,145.305936,5 Grierson Drive,Kilsyth,5160000,house,2013,3,2,1,SC_022,2.3126094413782736,19878,2.7141823538871432,0.0,1,hospital_164,4.431186657062328,S_224,0.8919567869241015
69766,-37.869828,145.072651,22 Chamberlain Street,Ashburton,20000000,house,2015,4,2,2,SC_042,1.8558794898112374,19847,0.6380061976641123,36.714285714285715,0,hospital_108,1.0852582194345775,S_112,1.8928288918204765
77863,-37.937008,145.206279,3 Alma Close,Mulgrave,4160000,house,2013,4,2,2,SC_073,3.8601913199703044,19890,4.237145227324605,48.82608695652174,0,hospital_161,0.6262773091002585,S_067,1.5658421637563398
60933,-37.83301163,145.2118835,790 Canterbury Road,Vermont,5720000,house,2009,3,2,2,SC_032,2.7022941368474522,19901,1.5733885266547993,0.0,1,hospital_008,2.2527914500244406,S_040,2.7741304341490634
38802,-37.760389,145.047462,3 Surrey Court,Ivanhoe,12320000,house,2011,3,2,2,SC_001,0.9751932904718517,19934,0.6722197795036996,25.071428571428573,0,hospital_046,1.109486224631335,S_219,1.010476088683404
72740,-37.856816,145.273412,1/23 Browning Road,Boronia,6225000,house,2015,2,1,2,SC_049,5.184104709852776,19869,1.0458891137724862,0.0,1,hospital_002,0.48343239255150716,S_024,1.1211685410767285
87150,-37.915418,145.006344,833 Hampton Street,Brighton,3900000,house,2016,4,3,3,SC_046,3.8833946869282725,19951,0.8827120089544445,22.0,0,hospital_156,1.360858313412934,S_009,0.9306573679121722
62787,-37.836131,145.233517,27 Hardy Crescent,Heathmont,8512000,house,2010,4,2,2,SC_032,2.634994495752406,19871,1.30285529073455,0.0,1,hospital_179,1.5726627073566521,S_040,2.7239517291009427
91303,-37.988399,145.042217,16 Banksia Avenue,Beaumaris,29750000,house,2015,4,2,2,SC_079,4.372132025951846,19865,2.140795377874554,38.9,0,hospital_055,1.2743345896484743,S_011,1.92987722835687
4416,-37.848344,144.864077,39 Rosshire Road,Newport,5340000,house,2015,2,1,3,SC_033,2.852657614725175,19994,1.8268512028524286,20.608695652173914,0,hospital_141,2.8777154137993586,S_056,2.1172755143653954
88857,-37.945259,145.033726,4 Seaton Road,Highett,8000000,house,2010,4,2,0,SC_046,0.7584584510399303,19872,0.7971933363876399,39.583333333333336,0,hospital_110,1.3850494618148608,S_069,0.7754762646315155
84330,-37.84935,145.011137,712 Malvern Road,Prahran,4592000,house,2013,3,1,1,SC_038,1.0095564252727685,19946,0.29063635748474714,22.583333333333332,0,hospital_132,0.5667083482788998,S_115,0.5360313570513048
89470,-37.946296,145.009559,35 Bamfield Street,Sandringham,9100000,house,2010,3,2,2,SC_046,2.6376852313425743,19948,0.627791162488465,28.933333333333334,0,hospital_036,0.6696917287407075,S_214,1.1078792782676796
21411,-37.76217,144.963971,6 New Street,Brunswick,7800000,house,2009,3,1,0,SC_030,3.5302805336099032,19967,0.3071544752662654,0.0,1,hospital_144,0.9357709761351967,S_074,0.9185660896031819
92271,-37.98834,145.062323,4 Coryule Avenue,Mentone,15700000,house,2015,4,2,2,SC_003,3.0291051939174913,19865,0.7626733353851217,38.9,0,hospital_133,0.8672885645581886,S_011,0.7544554915046557
23897,-37.696812,144.968472,101 William Street,Fawkner,6500000,house,2010,3,1,1,SC_030,4.278952854813264,19961,0.9485844114351787,0.0,1,hospital_139,3.4825178100949583,S_161,1.2102258732537483
95767,-37.913949,145.027684,40 Yawla Street,Bentleigh,19500000,house,2015,4,2,2,SC_046,2.9942945964101884,19939,0.9046111256348828,37.53846153846154,0,hospital_126,1.655309151716701,S_107,1.4103711059531192
27085,-37.57182,144.927927,5 Cropton Rise,Craigieburn,4675000,house,2013,4,2,2,SC_005,0.7272557769900732,40221,3.604695267132698,45.92857142857143,0,hospital_104,8.805298005111322,S_178,2.5264672953711558
28350,-37.799104,144.976729,58 Victoria Street,Fitzroy,11690000,house,2016,2,1,0,SC_008,1.5426002282319171,19843,1.3719764913626435,7.466960352422907,0,hospital_129,0.9759955661891885,S_200,0.15382954038695845
23940,-37.69874,144.96268,12 Disney Street,Fawkner,8160000,house,2010,4,1,1,SC_030,3.9072757012546813,19961,0.39861580070754743,0.0,1,hospital_139,3.755054752452327,S_161,1.0963531317555133
20224,-37.795346,144.972498,73 Kay Street,Carlton,12155000,house,2010,2,1,1,SC_008,1.8516169273568333,19843,1.7489522985283086,7.466960352422907,0,hospital_188,0.7852545226374879,S_200,0.5688615581800602
51179,-37.783973,145.139081,29 Lauer Street,Doncaster,6950000,house,2012,3,1,2,SC_091,1.2026530187804512,19897,4.099756559147475,0.0,1,hospital_194,2.4107789357080263,S_188,1.3688717358263465
26251,-37.583721,144.913449,28 Mallacoota Way,Craigieburn,5850000,house,2012,3,2,2,SC_016,1.0195566219521053,40221,3.3165860667307787,45.92857142857143,0,hospital_104,7.480847275308218,S_178,2.143690946205709
41200,-37.692943,145.043191,8 Virginia Crescent,Bundoora,8688000,house,2014,4,3,2,SC_047,5.201833941638089,20008,2.76599156102199,0.0,1,hospital_037,1.5827982841412997,S_155,1.211245763361896
80859,-37.974817,145.212212,16 Charles Street,Dandenong,4077000,house,2015,4,2,2,SC_112,1.3887359910375272,19888,1.700609412778241,53.81818181818182,0,hospital_033,0.41181232409874324,S_183,0.9048684443489764
87418,-37.942197,145.013266,17 David Street,Hampton,15570000,house,2015,3,1,1,SC_046,2.221880822784575,19949,1.1371070402078107,26.933333333333334,0,hospital_036,0.8388610954040306,S_214,0.8566318128545677
2485,-37.786643,144.878862,74 Ballarat Road,Maidstone,2277000,house,2007,2,1,2,SC_052,1.659602097697063,20023,1.781352276207518,19.6,0,hospital_056,0.968511891905636,S_149,1.7146939368853913
35053,-37.719636,145.018504,49 Tambo Avenue,Reservoir,9090000,house,2013,3,1,2,SC_047,2.3483993612786644,20010,1.05861627237312,0.0,1,hospital_139,1.8149349116891236,S_225,1.074892427562681
31459,-37.754666,144.990814,76 Hutton Street,Thornbury,10960000,house,2016,4,3,1,SC_103,1.9440787131190338,20014,0.6841000918474357,0.0,1,hospital_144,1.6857482001325759,S_105,1.1969536746956002
60358,-37.815331,145.187195,"U4, 17 Milne Street",Mitcham,4800000,house,2010,3,2,2,SC_088,0.8040896555251229,19900,0.5152703175174128,0.0,1,hospital_010,0.8144988058306629,S_202,1.3577128300735553
56349,-37.84682083,145.1092682,2/49 Elgar Road,Burwood,5694000,house,2009,2,1,1,SC_037,3.3012142412584167,19849,2.58226676313462,33.714285714285715,0,hospital_089,1.7769394621233143,S_097,2.305735528792377
2968,-37.822947,144.884138,18 Gordon Parade,Yarraville,8120000,house,2013,3,1,3,SC_033,3.312823690543643,19995,0.8706687782863457,18.545454545454547,0,hospital_056,3.323851011858658,S_201,2.7559597004675624
22649,-37.748612,144.975783,35 Huntington Grove,Coburg,7380000,house,2010,2,1,1,SC_103,2.513026583322614,19965,1.2988417682674807,0.0,1,hospital_144,0.9434601876324402,S_173,1.079316098201334
64212,-37.801796,145.275667,3/14 -16 Vernon Street,Croydon,3400000,house,2012,2,1,1,SC_022,0.7183982905475116,19878,0.8301689948559593,0.0,1,hospital_164,1.886328169992365,S_182,0.6176035024864143
40628,-37.697628,145.054399,41 Settlement Road,Bundoora,6118000,house,2011,4,1,1,SC_047,5.02462851070225,19984,2.9839174016283123,33.86666666666667,0,hospital_037,0.5259711068106036,S_155,0.12605088043132237
20100,-37.799576,144.97286,22 Canning Street,Carlton,17780000,house,2014,3,1,0,SC_008,1.3915480785522512,19843,1.277711699417093,7.466960352422907,0,hospital_188,0.6392555054892965,S_200,0.4758146753586307
49193,-37.810634,145.087873,2/26a Brenbeal Street,Balwyn,9200000,house,2012,3,2,2,SC_099,3.0352177705214625,19894,1.522731457650636,0.0,1,hospital_117,2.5023194850729156,S_136,1.4107693333534996
28937,-37.806207,144.993645,25 Raphael Street,Abbotsford,5958000,house,2010,2,2,0,SC_068,2.1203298334614673,19976,0.18735851783134644,10.333333333333334,0,hospital_052,0.9745358963169727,S_076,0.4143263693264816
51612,-37.780868,145.109841,7 Curnola Avenue,Doncaster,9394000,house,2010,5,3,3,SC_091,1.5803295001991244,19896,4.308939134066765,0.0,1,hospital_194,0.9627329342226041,S_046,0.891241490045238
21450,-37.765244,144.956716,64 Henkel Street,Brunswick,7920000,house,2016,3,2,1,SC_030,3.701179164106783,19968,0.37390849871123927,0.0,1,hospital_011,1.1936811860687218,S_074,0.584221618315702
29611,-37.766847,144.991232,189 St Georges Road,Northcote,9600000,house,2015,2,1,2,SC_103,3.178067037511501,20016,0.4894906359497862,0.0,1,hospital_035,1.5262656705168671,S_105,2.0675412846352197
41891,-37.760439,145.064114,23 Castle Street,Eaglemont,30240000,house,2015,4,2,2,SC_017,0.6493383671580173,19935,0.48108351870140575,26.176470588235293,0,hospital_046,0.4928877525136719,S_100,0.405682404004531
65863,-37.779486,145.310057,17 Kalimna Street,Mooroolbark,7327000,house,2010,3,1,0,SC_084,2.3994385406133136,19877,0.6211199692005418,0.0,1,hospital_113,4.392068320681697,S_168,2.3953775091943292
14039,-37.746355,144.923038,20 Butler Street,Essendon,6500000,house,2013,3,1,2,SC_082,2.063925018600254,20036,0.20784713429818488,23.875,0,hospital_184,1.644412376507492,S_197,1.1257141775883992
49314,-37.80821609,145.0889587,27 Parkdale Avenue,Balwyn,10800000,house,2009,4,2,2,SC_020,3.124571028684506,19894,1.7905691779933983,0.0,1,hospital_117,2.4429750526875895,S_136,1.2068907022218291
8975,-37.884032,144.75296,21 Anglers Court,Seabrook,7191000,house,2009,4,2,2,SC_092,2.3559671572860204,46468,1.6497725731604411,32.75,0,hospital_073,6.473670606342744,S_001,1.5527196656134756
69428,-37.862864,145.084958,10 Stocks Avenue,Ashburton,12690000,house,2015,3,1,2,SC_042,1.7112559407769183,19848,0.33293900796323594,35.714285714285715,0,hospital_098,0.12132573045574326,S_112,0.8699166671473969
13970,-37.76031494,144.8969116,19 Brunel Street,Aberfeldie,3550000,house,2009,4,2,2,SC_085,1.6058513388591762,20037,1.7636068781896423,20.88235294117647,0,hospital_068,1.6307896757765081,S_049,1.585366006791076
87722,-37.945992,145.022622,416 Bluff Road,Hampton,5355000,house,2011,1,1,0,SC_046,1.5578669472931082,19948,1.6572993149416528,28.933333333333334,0,hospital_036,1.7064966573745877,S_214,0.07740051862002595
96269,-37.8997,145.043174,8/49 Ulupna Rd,Ormond,3370000,house,2010,1,1,1,SC_041,2.149304278824681,19941,0.5006220886715086,35.5,0,hospital_126,2.0924260498428224,S_015,1.7723931670643114
79775,-37.984616,145.185886,17 Orloff Street,Keysborough,4536000,house,2009,4,1,1,SC_057,1.4241089880516535,19889,0.8676644815105692,50.57142857142857,0,hospital_124,1.6183752362893578,S_079,1.5080114177326867
77321,-37.925701,145.172549,1 Bentley Court,Mulgrave,6875000,house,2013,4,2,1,SC_073,2.4633598898646754,19913,3.1360248450819297,43.958333333333336,0,hospital_161,3.84068768242638,S_067,1.8096718695151826
52913,-37.8212984,145.0096729,29 Type Street,Richmond,7590000,house,2013,2,1,0,SC_038,2.1489888412159415,19906,0.7214911128765893,10.857142857142858,0,hospital_122,0.5501455137798495,S_076,1.7977808392317824
30574,-37.759958,144.9892,104 Woolton Avenue,Thornbury,8140000,house,2013,3,1,1,SC_103,2.5304336893129014,20015,0.8310732297474411,0.0,1,hospital_144,1.5796852131062489,S_105,1.6098990214306608
88150,-37.94173,145.043703,21 Hillston Road,Moorabbin,8820000,house,2014,3,1,1,SC_046,0.5320182377348152,19872,0.7624081136250588,39.583333333333336,0,hospital_110,1.1405157642100592,S_069,0.855797679260863
35527,-37.73039246,145.0284271,73 Kirby Street,Reservoir,3280000,house,2009,3,1,2,SC_047,0.9232217165381629,20011,2.2695046020755134,0.0,1,hospital_025,1.979588362464223,S_225,0.6108739472735039
5496,-37.780971,144.849995,13 Carlton Street,Braybrook,5200000,house,2013,3,1,1,SC_102,1.4527639098393215,20021,1.7253549083439674,25.666666666666668,0,hospital_174,1.579949943037249,S_080,1.4885995875416012
74119,-37.913279,145.275444,14 Crusoe Drive,Lysterfield,7500000,house,2011,4,3,2,SC_049,3.5646449427265705,19867,3.6338605915145825,0.0,1,hospital_150,3.6885108235954713,S_199,2.9347514891975677
64113,-37.78097534,145.289093,286 Maroondah Highway,Croydon,4485000,house,2009,3,1,2,SC_022,2.0841798954303368,19878,1.7748408684697068,0.0,1,hospital_164,4.192146065235154,S_181,1.8177290090975358
96669,-37.99856186,145.2704163,25 GIBSON STREET,Hallam,3200000,house,2009,3,2,2,SC_077,2.07501379781949,19885,2.135634129123659,58.54545454545455,0,hospital_069,4.652195277756028,S_212,0.8041972391003832
35025,-37.722336,145.022914,47 North Road,Reservoir,9645000,house,2015,3,1,1,SC_047,1.9190293093531843,20010,1.5273594969074762,0.0,1,hospital_025,1.8813425797405672,S_225,0.5868020216251523
58218,-37.823943,145.13969,57 Salisbury Avenue,Blackburn,9350000,house,2010,3,1,2,SC_037,1.6130879640921296,19897,0.36315686716145545,0.0,1,hospital_060,1.756187900506444,S_018,1.0689383950059472
9631,-37.855775,144.720342,7 Ford Court,Truganina,6636000,house,2016,4,2,2,SC_053,1.540524638188213,46468,2.851922001768881,32.75,0,hospital_073,4.308861113053495,S_007,2.3689652645352073
32116,-37.730675,145.006337,18a Winifred Street,Preston,8118000,house,2015,3,1,1,SC_103,1.0642716910808088,20011,0.40306317927796675,0.0,1,hospital_139,1.6309559512548155,S_085,0.7820353710308335
4826,-37.863284,144.818193,103 Grieve Parade,Altona,5650000,house,2010,3,1,0,SC_033,4.78687440174047,19925,0.46296335768481994,32.2,0,hospital_141,6.44846270233405,S_128,1.1628395340013173
61052,-37.81851578,145.2372284,1/16 Great Ryrie Street,Ringwood,4440000,house,2008,2,2,1,SC_032,0.9791784327215494,19902,0.7831085102955462,0.0,1,hospital_105,0.9689843940567022,S_190,0.9834677594690213
96084,-37.904938,145.037874,63 Glen Orme Avenue,Ormond,18700000,house,2012,4,2,0,SC_041,2.8953889060739604,19941,0.24550131185203752,35.5,0,hospital_126,1.6946807843952307,S_107,1.6662400359274296
85291,-37.881552,145.005386,16 Allison Road,Elsternwick,13520000,house,2011,3,2,2,SC_015,2.598134271835076,19954,0.5314753085049507,16.9375,0,hospital_116,0.5627109954565366,S_193,0.6088500164358839
15938,-37.70791245,144.8956909,13/46-54 Gowanbrae Drive,Gowanbrae,4774000,house,2008,3,2,2,SC_010,1.031256021700267,20032,1.932975066173249,32.875,0,hospital_184,3.9160626316181912,S_198,2.15205518611994
67268,-37.749819,145.339585,25 Beresford Road,Lilydale,5572000,house,2014,3,1,1,SC_084,2.4406636432927296,19876,0.9559525979687507,0.0,1,hospital_151,1.527132162445591,S_233,1.2921290059674955
82432,-37.995036,145.242029,80 Paperbark Street,Doveton,3252000,house,2010,3,1,0,SC_077,1.2569531658964974,19888,2.889544087572376,53.81818181818182,0,hospital_119,2.3044440440951384,S_212,2.3373661116319733
3832,-37.819047,144.898167,"7-11 Aston Street,",Yarraville,9750000,house,2010,1,1,0,SC_043,4.287460593654446,19996,0.8067266023072807,15.545454545454545,0,hospital_056,3.070907960195838,S_201,2.037149717627532
56989,-37.828978,145.073532,10 Carinda Road,Canterbury,19800000,house,2014,4,2,1,SC_099,1.4568389837057412,19852,0.442595991269014,27.833333333333332,0,hospital_168,2.4999899417881206,S_160,0.7063480670338212
55303,-37.835539,145.064653,21a King Street,Camberwell,17010000,house,2015,4,2,2,SC_099,1.3753710588726176,19851,0.49663236243673436,29.714285714285715,0,hospital_168,1.4415118637349904,S_160,0.5612177795703017
12628,-37.713403,144.767388,20 Buninyong Way,Delahey,6000000,house,2011,3,2,2,SC_048,3.151403942173099,20000,1.4915492805255428,39.05882352941177,0,hospital_057,6.684036682460685,S_094,1.4604246499581295
54690,-37.825473,145.041216,7 Lyall Street,Hawthorn,15600000,house,2010,4,2,2,SC_083,0.745130115220772,19903,0.5317131216417603,22.833333333333332,0,hospital_127,0.5773238620370962,S_208,0.7950476191311475
92317,-37.987706,145.064972,48 Mentone Parade,Mentone,12650000,house,2015,3,1,2,SC_003,2.8059500732124674,19865,0.6503809685878538,38.9,0,hospital_133,0.7241372855615203,S_011,0.7192452343823763
45757,-37.718433,145.114333,1/78 Para Road,Montmorency,4230000,house,2016,2,2,2,SC_009,5.614334340698671,19986,0.7224707276224305,40.0,0,hospital_075,1.6579351741835369,S_020,1.9793353671800578
77814,-37.934666,145.200689,27 Amblecote Crescent,Mulgrave,5830000,house,2010,3,2,2,SC_073,3.4165729012892596,19891,4.117924556755216,45.95652173913044,0,hospital_161,1.175997196096508,S_067,1.0814675492501822
27108,-37.581721,144.912072,5 Hadley Lane,Craigieburn,4017000,house,2015,3,1,2,SC_005,1.0861550630775367,40221,3.5498207764354412,45.92857142857143,0,hospital_104,7.713386285466077,S_178,2.3684784974251127
68675,-37.855055,145.015192,822 High Street,Armadale,13804000,house,2014,2,1,2,SC_038,1.7237698536434745,19945,0.39520255980632696,23.583333333333332,0,hospital_132,0.5641122039280773,S_115,1.1704490216031844
35822,-37.676851,145.037276,1 Jacob Court,Thomastown,3664000,house,2016,3,1,1,SC_062,5.0903468904281235,20007,2.062945407189489,0.0,1,hospital_041,2.785773404320313,S_228,1.843691264759206
2700,-37.814667,144.887932,11 Fehon Street,Yarraville,8832000,house,2010,3,1,0,SC_043,3.297016229265642,19996,0.21986606560887342,15.545454545454545,0,hospital_056,2.402071382489113,S_201,1.7851231493922672
17780,-37.699005,144.926837,86 Beatty Avenue,Glenroy,4530000,house,2012,3,1,1,SC_059,3.879869735516268,20032,1.0471375359235644,32.875,0,hospital_184,5.186461829614897,S_209,0.8177706612520924
87812,-37.945579,145.016864,53 Highett Road,Hampton,14690000,house,2010,4,2,2,SC_046,2.0033422731651576,19948,1.2024956560101043,28.933333333333334,0,hospital_036,1.2063826180890371,S_214,0.46263207090696296
1108,-37.807036,144.887852,5 Hamilton Street,Seddon,9800000,house,2011,2,1,0,SC_043,2.754343915477667,20024,0.596494649533273,17.6,0,hospital_056,1.5545917239583715,S_201,1.1350400625100243
52728,-37.811546,144.993387,22 Shelley Street,Richmond,8580000,house,2010,2,1,1,SC_068,1.909758234204761,19977,0.14967349612611744,8.333333333333334,0,hospital_052,0.5990406934881763,S_076,0.28963772842604957
2063,-37.80497,144.881828,251 Geelong Road,Kingsville,6375000,house,2012,3,1,1,SC_043,2.1862733298118497,20023,0.4673636647088705,19.6,0,hospital_056,1.3726382058068356,S_201,1.4989013677433827
74303,-37.884622,145.024986,24 Snowdon Avenue,Caulfield,13790000,house,2012,4,2,2,SC_023,1.8294113671248091,19942,1.617145588693118,32.5,0,hospital_080,0.8300317162411425,S_166,0.1578029669558878
70273,-37.862061,145.076305,7 Johnston Street,Ashburton,12800000,house,2015,3,2,1,SC_042,2.162777791462284,19848,0.44294784356359873,35.714285714285715,0,hospital_098,0.7885769870743391,S_112,1.609505064252507
84167,-37.851382,145.005643,56 Wrights Terrace,Prahran,11680000,house,2011,3,2,0,SC_066,1.154123829886625,19946,0.729666819387573,22.583333333333332,0,hospital_132,0.4171859059020055,S_115,0.3729325124150961
24865,-37.583863,144.910467,1 Daymar Circuit,Craigieburn,7210000,house,2015,4,2,2,SC_016,1.046180664463139,40221,3.5201550081363195,45.92857142857143,0,hospital_104,7.491318926021524,S_178,2.3626944564721843
66641,-37.763772,145.329921,7 Eastwood Crescent,Mooroolbark,6720000,house,2011,4,2,2,SC_084,1.5398346403013061,19876,1.8152761496267715,0.0,1,hospital_113,2.1975052656743737,S_168,1.1271248595854386
